SALE TYPE,SOLD DATE,PROPERTY TYPE,ADDRESS,CITY,STATE OR PROVINCE,ZIP OR POSTAL CODE,PRICE,BEDS,BATHS,LOCATION,SQUARE FEET,LOT SIZE,YEAR BUILT,DAYS ON MARKET,$/SQUARE FEET,HOA/MONTH,STATUS,NEXT OPEN HOUSE START TIME,NEXT OPEN HOUSE END TIME,URL (SEE http://www.redfin.com/buy-a-home/comparative-market-analysis FOR INFO ON PRICING),SOURCE,MLS#,FAVORITE,INTERESTED,LATITUDE,LONGITUDE
MLS Listing,,Single Family Residential,209 South Hill Blvd,San Francisco,CA,94112,1098000,2,1.0,San Francisco,1364,4499,1927,1,805,,Active,August-28-2021 01:00 PM,August-28-2021 03:00 PM,http://www.redfin.com/CA/San-Francisco/209-S-Hill-Blvd-94112/home/793588,San Francisco MLS,421579021,N,Y,37.71011,-122.4303341
MLS Listing,,Condo/Co-op,2000 Ellis St #205,San Francisco,CA,94115,749000,1,1.0,San Francisco,595,8090,2013,1,1259,466,Active,August-28-2021 01:00 PM,August-28-2021 03:00 PM,http://www.redfin.com/CA/San-Francisco/2000-Ellis-St-94115/unit-205/home/55244549,San Francisco MLS,421587794,N,Y,37.781718,-122.439434
MLS Listing,,Condo/Co-op,1998 Broadway #807,San Francisco,CA,94109,1350000,2,,San Francisco,1030,15195,1964,12,1311,1288,Active,,,http://www.redfin.com/CA/San-Francisco/1998-Broadway-94109/unit-807/home/1865773,San Francisco MLS,421583886,N,Y,37.7953251,-122.4298254
MLS Listing,,Condo/Co-op,1001 Pine St #809,SAN FRANCISCO,CA,94109,698000,1,1.0,SAN FRANCISCO,616,,1963,17,1133,636,Active,,,http://www.redfin.com/CA/San-Francisco/1001-Pine-St-94109/unit-809/home/1135226,MLSListings,ML81857160,N,Y,37.790348,-122.412568
MLS Listing,,Single Family Residential,618 Mangels Ave,San Francisco,CA,94127,1798000,3,3.0,San Francisco,1920,3746,1912,18,936,,Active,,,http://www.redfin.com/CA/San-Francisco/618-Mangels-Ave-94127/home/1719034,San Francisco MLS,421582030,N,Y,37.7332736,-122.4516557
MLS Listing,,Condo/Co-op,163 Shipley St,San Francisco,CA,94107,875000,2,1.0,San Francisco,801,10427,1992,26,1092,599,Active,,,http://www.redfin.com/CA/San-Francisco/163-Shipley-94107/home/1950146,San Francisco MLS,421576170,N,Y,37.7805383,-122.4018925
MLS Listing,,Multi-Family (2-4 Unit),22 30th St,San Francisco,CA,94110,998000,3,2.0,San Francisco,1604,801,1907,83,622,,Active,,,http://www.redfin.com/CA/San-Francisco/22-30th-St-94110/home/808517,San Francisco MLS,421558100,N,Y,37.7424885,-122.422707
MLS Listing,,Condo/Co-op,388 Fulton St #405,SAN FRANCISCO,CA,94102,898000,2,1.0,SAN FRANCISCO,720,,2016,111,1247,639,Active,,,http://www.redfin.com/CA/San-Francisco/388-Fulton-St-94102/unit-405/home/105419644,MLSListings,ML81842102,N,Y,37.7790326,-122.4231449
MLS Listing,,Condo/Co-op,248 Myrtle St,San Francisco,CA,94109,799000,2,1.0,San Francisco,975,3828,1900,112,819,461,Active,,,http://www.redfin.com/CA/San-Francisco/248-Myrtle-St-94109/home/1491675,San Francisco MLS,421544867,N,Y,37.7852487,-122.4221514
MLS Listing,,Multi-Family (5+ Unit),1723 - 1727 Stockton St,San Francisco,CA,94133,3250000,5,2.0,San Francisco,6318,2588,1900,1,514,,Active,,,http://www.redfin.com/CA/San-Francisco/1723-Stockton-St-94133/home/1641778,San Francisco MLS,421586735,N,Y,37.8017051,-122.4097525
MLS Listing,,Condo/Co-op,1688 Pine St Unit W1109,San Francisco,CA,94109,1740000,2,2.0,San Francisco,1202,35482,2016,1,1448,888,Active,,,http://www.redfin.com/CA/San-Francisco/1688-Pine-St-94109/unit-W1109/home/144063578,San Francisco MLS,421586992,N,Y,37.7895497,-122.4233697
MLS Listing,,Multi-Family (2-4 Unit),945 Minnesota St,San Francisco,CA,94107,1998000,0,,San Francisco,3585,2495,1900,1,557,,Active,August-25-2021 02:00 PM,August-25-2021 03:30 PM,http://www.redfin.com/CA/San-Francisco/945-Minnesota-St-94107/home/1054654,San Francisco MLS,421587797,N,Y,37.7582876,-122.3899412
MLS Listing,,Condo/Co-op,2 Mint Plz #202,San Francisco,CA,94103,775000,1,1.0,San Francisco,769,7776,1926,1,1008,871,Active,,,http://www.redfin.com/CA/San-Francisco/2-Mint-Plz-94103/unit-202/home/17306451,San Francisco MLS,421583728,N,Y,37.7831186,-122.4076117
MLS Listing,,Single Family Residential,1572 Noe St,San Francisco,CA,94131,2595000,3,2.5,San Francisco,1973,2626,1904,1,1315,,Active,August-28-2021 12:00 PM,August-28-2021 02:00 PM,http://www.redfin.com/CA/San-Francisco/1572-Noe-St-94131/home/808142,San Francisco MLS,421587262,N,Y,37.7438435,-122.430959
MLS Listing,,Condo/Co-op,1238 Sutter St #603,San Francisco,CA,94109,695000,1,1.0,San Francisco,,4830,2018,1,,495,Active,,,http://www.redfin.com/CA/San-Francisco/1238-Sutter-St-94109/unit-603/home/169566015,San Francisco MLS,421575436,N,Y,37.7880028,-122.4208442
MLS Listing,,Single Family Residential,228 Jersey St,San Francisco,CA,94114,1795000,2,1.0,San Francisco,1377,2848,1908,1,1304,,Active,,,http://www.redfin.com/CA/San-Francisco/228-Jersey-St-94114/home/1760478,San Francisco MLS,421587120,N,Y,37.750962,-122.430314
MLS Listing,,Multi-Family (2-4 Unit),3233 Broderick St,SAN FRANCISCO,CA,94123,3288000,7,3.0,SAN FRANCISCO,3805,3438,1927,1,864,,Active,,,http://www.redfin.com/CA/San-Francisco/3233-Broderick-St-94123/home/881841,MLSListings,ML81859555,N,Y,37.8001852,-122.4449592
MLS Listing,,Condo/Co-op,280 Spear St Unit 25C,San Francisco,CA,94105,1850000,2,2.0,San Francisco,1209,47916,,1,1530,1230,Active,,,http://www.redfin.com/CA/San-Francisco/280-Spear-St-94105/unit-25C/home/176180951,San Francisco MLS,421587743,N,Y,37.7904356,-122.3918209
MLS Listing,,Condo/Co-op,55 Oak St #610,San Francisco,CA,94102,995400,1,1.0,San Francisco,723,10227,2021,1,1377,802,Active,,,http://www.redfin.com/CA/San-Francisco/55-Oak-St-94102/unit-610/home/176175907,San Francisco MLS,421587712,N,Y,37.7750761,-122.4201583
MLS Listing,,Condo/Co-op,55 Oak St #307,San Francisco,CA,94102,625500,0,1.0,San Francisco,494,10227,2021,1,1266,704,Active,,,http://www.redfin.com/CA/San-Francisco/55-Oak-St-94102/unit-307/home/176175906,San Francisco MLS,421587711,N,Y,37.7750761,-122.4201583
MLS Listing,,Condo/Co-op,55 Oak St #208,San Francisco,CA,94102,739000,1,1.0,San Francisco,657,10227,2021,1,1125,774,Active,,,http://www.redfin.com/CA/San-Francisco/55-Oak-St-94102/unit-208/home/176175905,San Francisco MLS,421587648,N,Y,37.7750761,-122.4201583
MLS Listing,,Single Family Residential,164 Galewood Cir,SAN FRANCISCO,CA,94131,1295000,2,2.0,SAN FRANCISCO,1465,995,1978,1,884,298,Active,August-28-2021 02:00 PM,August-28-2021 04:00 PM,http://www.redfin.com/CA/San-Francisco/164-Galewood-Cir-94131/home/1590175,MLSListings,ML81859519,N,Y,37.7529235,-122.4569744
MLS Listing,,Single Family Residential,890 De Haro St,San Francisco,CA,94107,1898000,4,2.0,San Francisco,1789,2500,1934,1,1061,,Active,August-24-2021 02:00 PM,August-24-2021 04:00 PM,http://www.redfin.com/CA/San-Francisco/890-De-Haro-St-94107/home/1157820,San Francisco MLS,421586720,N,Y,37.758539,-122.4012201
MLS Listing,,Single Family Residential,494 20th Ave,SAN FRANCISCO,CA,94121,1595000,5,3.0,SAN FRANCISCO,2376,1437,1916,1,671,,Active,August-23-2021 05:00 PM,August-23-2021 07:00 PM,http://www.redfin.com/CA/San-Francisco/494-20th-Ave-94121/home/1278919,MLSListings,ML81859503,N,Y,37.7785637,-122.4790328
MLS Listing,,Condo/Co-op,219 Brannan St Unit 1D,San Francisco,CA,94107,949000,1,1.5,San Francisco,844,82966,2000,2,1124,1100,Active,August-28-2021 02:00 PM,August-28-2021 04:00 PM,http://www.redfin.com/CA/San-Francisco/219-Brannan-St-94107/unit-1D/home/1347708,San Francisco MLS,421587605,N,Y,37.7830623,-122.3901122
MLS Listing,,Single Family Residential,,San Francisco,CA,94122,1888888,4,2.5,Sunset,2092,2996,1916,2,903,,Active,,,http://www.redfin.com/CA/San-Francisco/Undisclosed-address-94122/home/1022341,"bridgeMLS, Bay East AOR, or Contra Costa AOR",40964213,N,Y,37.7605896,-122.4835916
MLS Listing,,Condo/Co-op,88 Townsend St #225,San Francisco,CA,94107,799000,1,1.0,San Francisco,,37623,2004,2,,549,Active,August-26-2021 06:00 PM,August-26-2021 07:00 PM,http://www.redfin.com/CA/San-Francisco/88-Townsend-St-94102/unit-225/home/12401546,San Francisco MLS,421544939,N,Y,37.7811985,-122.3906654
MLS Listing,,Condo/Co-op,195 7th St #302,San Francisco,CA,94103,465000,0,1.0,San Francisco,320,,1991,2,1453,370,Active,,,http://www.redfin.com/CA/San-Francisco/195-7th-St-94103/unit-302/home/1184216,San Francisco MLS,421587391,N,Y,37.7783013,-122.4094944
MLS Listing,,Single Family Residential,587 15th Ave,San Francisco,CA,94118,2195000,4,2.0,San Francisco,2040,1938,,2,1076,,Active,August-28-2021 02:00 PM,August-28-2021 04:00 PM,http://www.redfin.com/CA/San-Francisco/587-15th-Ave-94118/home/1173193,San Francisco MLS,421584968,N,Y,37.7770697,-122.4739458
MLS Listing,,Single Family Residential,29 Newburg St,San Francisco,CA,94131,1495000,3,2.0,San Francisco,,2247,1944,2,,,Active,August-28-2021 02:00 PM,August-28-2021 05:00 PM,http://www.redfin.com/CA/San-Francisco/29-Newburg-St-94131/home/1712840,San Francisco MLS,421587181,N,Y,37.7460732,-122.4340125
MLS Listing,,Condo/Co-op,355 Buena Vista Ave E Unit 202W,San Francisco,CA,94117,748000,1,1.0,San Francisco,674,90869,1986,2,1110,800,Active,August-24-2021 12:00 PM,August-24-2021 01:30 PM,http://www.redfin.com/CA/San-Francisco/355-Buena-Vista-Ave-E-94117/unit-202W/home/176170093,San Francisco MLS,421574763,N,Y,37.7675471,-122.4400498
MLS Listing,,Single Family Residential,387 London St,San Francisco,CA,94112,1150000,2,1.0,San Francisco,1375,2500,1924,2,836,,Active,August-28-2021 01:00 PM,August-28-2021 04:00 PM,http://www.redfin.com/CA/San-Francisco/387-London-St-94112/home/1687989,San Francisco MLS,421587505,N,Y,37.7228669,-122.4347912
MLS Listing,,Single Family Residential,156 Curtis St,San Francisco,CA,94112,995000,3,2.0,San Francisco,1040,2996,1910,2,957,,Active,August-28-2021 02:00 PM,August-28-2021 04:00 PM,http://www.redfin.com/CA/San-Francisco/156-Curtis-St-94112/home/1232936,San Francisco MLS,421586425,N,Y,37.7122115,-122.4394914
MLS Listing,,Single Family Residential,134 Shakespear St,SAN FRANCISCO,CA,94112,599500,2,1.0,SAN FRANCISCO,486,2495,1924,3,1234,,Active,,,http://www.redfin.com/CA/San-Francisco/134-Shakespeare-St-94112/home/1907194,MLSListings,ML81859448,N,Y,37.708602,-122.463027
MLS Listing,,Single Family Residential,2724 Santiago St,San Francisco,CA,94116,1495000,3,3.0,San Francisco,2131,2500,1948,3,702,,Active,August-28-2021 01:00 PM,August-28-2021 03:00 PM,http://www.redfin.com/CA/San-Francisco/2724-Santiago-St-94116/home/1246116,San Francisco MLS,421586523,N,Y,37.7441865,-122.4967175
MLS Listing,,Single Family Residential,1163 Bowdoin St,SAN FRANCISCO,CA,94134,977888,2,1.0,SAN FRANCISCO,924,2996,1951,3,1058,,Active,August-29-2021 01:30 PM,August-29-2021 04:30 PM,http://www.redfin.com/CA/San-Francisco/1163-Bowdoin-St-94134/home/1951013,MLSListings,ML81859437,N,Y,37.7215316,-122.4085658
MLS Listing,,Single Family Residential,156 26th Ave,San Francisco,CA,94121,3595000,4,3.5,San Francisco,3536,3118,1937,3,1017,,Active,August-26-2021 05:00 PM,August-26-2021 06:30 PM,http://www.redfin.com/CA/San-Francisco/156-26th-Ave-94121/home/606319,San Francisco MLS,421586596,N,Y,37.7865099,-122.4860996
MLS Listing,,Condo/Co-op,2 Amazon Ave #203,San Francisco,CA,94112,748000,2,2.0,San Francisco,857,11815,1999,3,873,267,Active,,,http://www.redfin.com/CA/San-Francisco/2-Amazon-Ave-94112/unit-203/home/966948,San Francisco MLS,421587450,N,Y,37.7170363,-122.4401945
MLS Listing,,Single Family Residential,2130 26th Ave,San Francisco,CA,94116,1949000,5,3.0,San Francisco,2405,2996,1937,3,810,,Active,,,http://www.redfin.com/CA/San-Francisco/2130-26th-Ave-94116/home/1813171,San Francisco MLS,421585873,N,Y,37.7476981,-122.483243
MLS Listing,,Single Family Residential,1163 - 1165 Shotwell St,San Francisco,CA,94110,3995000,5,4.5,San Francisco,4021,3206,1900,3,994,,Active,,,http://www.redfin.com/CA/San-Francisco/1163-Shotwell-St-94110/unit-1165/home/1951235,San Francisco MLS,421586987,N,Y,37.7498654,-122.4146186
MLS Listing,,Single Family Residential,307 Faxon Ave,San Francisco,CA,94112,1648000,4,3.5,San Francisco,1868,1873,1927,3,882,,Active,August-24-2021 01:00 PM,August-24-2021 02:30 PM,http://www.redfin.com/CA/San-Francisco/307-Faxon-Ave-94112/home/1912785,San Francisco MLS,421587429,N,Y,37.7202119,-122.4604573
MLS Listing,,Single Family Residential,33 Sweeny St,San Francisco,CA,94134,1150000,2,2.0,San Francisco,1125,1875,1925,3,1022,,Active,August-29-2021 01:30 PM,August-29-2021 04:30 PM,http://www.redfin.com/CA/San-Francisco/33-Sweeny-St-94134/home/1310358,San Francisco MLS,421587405,N,Y,37.7331702,-122.4067447
MLS Listing,,Condo/Co-op,181 Fremont Unit 62D,San Francisco,CA,94105,3820000,2,2.0,San Francisco,1623,,2018,3,2354,2810,Active,,,http://www.redfin.com/CA/San-Francisco/181-Fremont-St-94105/unit-62D/home/167299469,San Francisco MLS,421587369,N,Y,37.7898082,-122.3953565
MLS Listing,,Multi-Family (5+ Unit),1885 Filbert St,San Francisco,CA,94123,3950000,0,,San Francisco,4790,3110,1953,3,825,,Active,,,http://www.redfin.com/CA/San-Francisco/1885-Filbert-St-94123/home/1707818,San Francisco MLS,421587386,N,Y,37.7985651,-122.4304155
MLS Listing,,Single Family Residential,2224 Sacramento St,San Francisco,CA,94115,6895000,6,6.5,San Francisco,7983,8618,1906,3,864,,Active,August-26-2021 03:00 PM,August-26-2021 04:30 PM,http://www.redfin.com/CA/San-Francisco/2224-Sacramento-St-94115/home/1903427,San Francisco MLS,421583742,N,Y,37.7905814,-122.4301171
MLS Listing,,Condo/Co-op,2246 - A Mason St,San Francisco,CA,94133,975000,2,1.0,San Francisco,,2622,1912,3,,541,Active,,,http://www.redfin.com/CA/San-Francisco/2246-Mason-St-94133/home/40191777,San Francisco MLS,421587326,N,Y,37.8044362,-122.4131062
MLS Listing,,Condo/Co-op,280 Spear St Unit 15D,San Francisco,CA,94105,1898000,2,2.0,San Francisco,1140,,,3,1665,1196,Active,,,http://www.redfin.com/CA/San-Francisco/280-Spear-St-94105/unit-15D/home/176166604,San Francisco MLS,421587373,N,Y,37.7904356,-122.3918209
MLS Listing,,Single Family Residential,20 Forest Knolls Dr,San Francisco,CA,94131,1298000,3,2.0,San Francisco,1282,3201,1959,3,1012,,Active,August-24-2021 01:00 PM,August-24-2021 02:30 PM,http://www.redfin.com/CA/San-Francisco/20-Forest-Knolls-Dr-94131/home/1949634,San Francisco MLS,421587331,N,Y,37.756438,-122.4550504
MLS Listing,,Single Family Residential,228 Yerba Buena Ave,San Francisco,CA,94127,1698000,2,2.0,San Francisco,1632,4011,1927,3,1040,2,Active,,,http://www.redfin.com/CA/San-Francisco/228-Yerba-Buena-Ave-94127/home/1574860,San Francisco MLS,421587319,N,Y,37.7346302,-122.460192
MLS Listing,,Single Family Residential,87 Maynard St,San Francisco,CA,94112,668000,2,1.0,Excelsior,630,2125,1909,3,1060,,Active,,,http://www.redfin.com/CA/San-Francisco/87-Maynard-St-94112/home/2032159,"bridgeMLS, Bay East AOR, or Contra Costa AOR",40964098,N,Y,37.7294198,-122.4286058
MLS Listing,,Condo/Co-op,855 Filbert St,San Francisco,CA,94133,1398000,2,1.5,San Francisco,1250,2389,1907,3,1118,382,Active,August-25-2021 03:00 PM,August-25-2021 05:00 PM,http://www.redfin.com/CA/San-Francisco/855-Filbert-St-94133/home/40456888,San Francisco MLS,421586636,N,Y,37.8006228,-122.4134862
MLS Listing,,Single Family Residential,2375 28th Ave,San Francisco,CA,94116,1495000,4,3.0,San Francisco,1629,3000,1923,3,918,,Active,,,http://www.redfin.com/CA/San-Francisco/2375-28th-Ave-94116/home/1620579,San Francisco MLS,421585866,N,Y,37.7431038,-122.4856197
MLS Listing,,Single Family Residential,549 Bright St,San Francisco,CA,94132,1799000,5,4.0,San Francisco,1958,2495,1925,3,919,,Active,,,http://www.redfin.com/CA/San-Francisco/549-Bright-St-94132/home/1303031,San Francisco MLS,421586528,N,Y,37.7206422,-122.4638075
MLS Listing,,Condo/Co-op,230 Liberty St,San Francisco,CA,94114,1595000,2,1.5,San Francisco,1662,3000,1938,3,960,283,Active,August-26-2021 05:00 PM,August-26-2021 06:30 PM,http://www.redfin.com/CA/San-Francisco/230-Liberty-St-94114/home/173336750,San Francisco MLS,421587268,N,Y,37.7574984,-122.4265201
MLS Listing,,Single Family Residential,1460 Alemany Blvd,SAN FRANCISCO,CA,94112,1495000,3,2.0,SAN FRANCISCO,1926,2435,1952,3,776,,Active,,,http://www.redfin.com/CA/San-Francisco/1460-Alemany-Blvd-94112/home/812020,MLSListings,ML81859358,N,Y,37.7287888,-122.4347917
MLS Listing,,Condo/Co-op,300 Berry St #1103,San Francisco,CA,94158,849000,1,1.0,San Francisco,732,41861,2009,3,1160,550,Active,August-29-2021 02:00 PM,August-29-2021 04:00 PM,http://www.redfin.com/CA/San-Francisco/300-Berry-St-94158/unit-1103/home/23455331,San Francisco MLS,421587165,N,Y,37.77393,-122.396241
MLS Listing,,Condo/Co-op,610 Illinois St #205,San Francisco,CA,94107,1050000,1,1.5,San Francisco,,4993,1996,3,,700,Active,August-25-2021 02:00 PM,August-25-2021 03:30 PM,http://www.redfin.com/CA/San-Francisco/610-Illinois-St-94107/unit-205/home/12396188,San Francisco MLS,421545344,N,Y,37.763975,-122.3881805
MLS Listing,,Single Family Residential,2515 34th Ave,SAN FRANCISCO,CA,94116,1195000,4,3.0,SAN FRANCISCO,2163,2375,1931,3,552,,Active,August-25-2021 06:00 PM,August-25-2021 08:00 PM,http://www.redfin.com/CA/San-Francisco/2515-34th-Ave-94116/home/1949483,MLSListings,ML81859346,N,Y,37.740116,-122.491896
MLS Listing,,Single Family Residential,80 Yerba Buena Ave,San Francisco,CA,94127,2795000,4,2.0,San Francisco,2728,7296,1925,3,1025,250,Active,August-23-2021 05:45 PM,August-23-2021 07:00 PM,http://www.redfin.com/CA/San-Francisco/80-Yerba-Buena-Ave-94127/home/700229,San Francisco MLS,421587018,N,Y,37.7370584,-122.4637633
MLS Listing,,Condo/Co-op,220 Lombard St #322,San Francisco,CA,94111,595000,1,1.0,San Francisco,603,50188,1992,3,987,866,Active,,,http://www.redfin.com/CA/San-Francisco/220-Lombard-St-94111/unit-322/home/1881749,San Francisco MLS,421586421,N,Y,37.8042436,-122.4054002
MLS Listing,,Condo/Co-op,76 Prosper St,San Francisco,CA,94114,1195000,2,2.0,San Francisco,,1716,1900,3,,250,Active,August-25-2021 05:30 PM,August-25-2021 06:30 PM,http://www.redfin.com/CA/San-Francisco/76-Prosper-St-94114/unit-78/home/1413111,San Francisco MLS,421584345,N,Y,37.7631083,-122.4317557
MLS Listing,,Condo/Co-op,255 Berry St #505,San Francisco,CA,94158,976000,1,1.0,San Francisco,873,,2004,3,1118,804,Active,,,http://www.redfin.com/CA/San-Francisco/255-Berry-St-94158/unit-505/home/873804,"bridgeMLS, Bay East AOR, or Contra Costa AOR",40963626,N,Y,37.7743869,-122.3947812
MLS Listing,,Condo/Co-op,300 3rd St #618,San Francisco,CA,94107,1250000,2,2.0,San Francisco,1534,48941,1990,3,815,1003,Active,August-29-2021 12:00 PM,August-29-2021 02:00 PM,http://www.redfin.com/CA/San-Francisco/300-3rd-St-94107/unit-618/home/1944458,San Francisco MLS,421586666,N,Y,37.7835658,-122.3989483
MLS Listing,,Condo/Co-op,45 Bartlett St #613,San Francisco,CA,94110,839000,1,1.0,San Francisco,631,23803,2014,3,1330,582,Active,August-24-2021 02:00 PM,August-24-2021 03:30 PM,http://www.redfin.com/CA/San-Francisco/45-Bartlett-St-94110/unit-613/home/109315438,San Francisco MLS,421585859,N,Y,37.7558162,-122.4197494
MLS Listing,,Condo/Co-op,101 Lombard St Unit 201W,San Francisco,CA,94111,1229000,2,2.0,San Francisco,1368,113438,1983,3,898,,Active,,,http://www.redfin.com/CA/San-Francisco/101-Lombard-St-94111/unit-201W/home/1682574,San Francisco MLS,421587121,N,Y,37.8037119,-122.4045338
MLS Listing,,Single Family Residential,421 Tehama St,San Francisco,CA,94103,6500000,4,2.5,San Francisco,5279,,,3,1231,,Active,,,http://www.redfin.com/CA/San-Francisco/421-Tehama-St-94103/home/12395923,San Francisco MLS,421579376,N,Y,37.7806054,-122.4048962
MLS Listing,,Condo/Co-op,1879 Oak St #1,San Francisco,CA,94117,649000,1,1.0,San Francisco,,2461,1917,3,,380,Active,August-24-2021 12:00 PM,August-24-2021 01:30 PM,http://www.redfin.com/CA/San-Francisco/1879-Oak-St-94117/unit-1/home/109686893,San Francisco MLS,421585844,N,Y,37.771268,-122.450199
MLS Listing,,Single Family Residential,117 Warren Dr,San Francisco,CA,94131,1495000,3,2.0,San Francisco,1717,3297,1959,3,871,,Active,August-24-2021 01:00 PM,August-24-2021 02:30 PM,http://www.redfin.com/CA/San-Francisco/117-Warren-Dr-94131/home/675125,San Francisco MLS,421587072,N,Y,37.7534184,-122.4579363
MLS Listing,,Single Family Residential,28 Gaviota Way,San Francisco,CA,94127,1150000,2,1.0,San Francisco,1336,2561,1941,3,861,,Active,,,http://www.redfin.com/CA/San-Francisco/28-Gaviota-Way-94127/home/1230569,San Francisco MLS,421587092,N,Y,37.7393055,-122.44807
MLS Listing,,Condo/Co-op,601 Van Ness Ave #705,San Francisco,CA,94102,588000,2,2.0,San Francisco,882,105806,1982,3,667,1040,Active,,,http://www.redfin.com/CA/San-Francisco/601-Van-Ness-Ave-94102/unit-705/home/1349258,San Francisco MLS,421585857,N,Y,37.7813653,-122.4215253
MLS Listing,,Single Family Residential,47 Sussex St,San Francisco,CA,94131,1595000,3,2.0,San Francisco,1500,,,3,1063,,Active,,,http://www.redfin.com/CA/San-Francisco/47-Sussex-St-94131/home/1265735,San Francisco MLS,421585865,N,Y,37.7365003,-122.4337848
MLS Listing,,Condo/Co-op,126 Mallorca Way,San Francisco,CA,94123,1699000,2,2.0,San Francisco,,2499,1924,3,,300,Active,,,http://www.redfin.com/CA/San-Francisco/126-Mallorca-Way-94123/home/1658819,San Francisco MLS,421587107,N,Y,37.8020163,-122.4373471
MLS Listing,,Condo/Co-op,46 Rossi Ave,San Francisco,CA,94118,1275000,2,1.0,San Francisco,1204,3057,1939,3,1059,,Active,,,http://www.redfin.com/CA/San-Francisco/46-Rossi-Ave-94118/home/1788646,San Francisco MLS,421585557,N,Y,37.7787898,-122.4561287
MLS Listing,,Condo/Co-op,48 Rossi Ave,San Francisco,CA,94118,1668000,2,1.5,San Francisco,1647,3057,1939,3,1013,,Active,,,http://www.redfin.com/CA/San-Francisco/48-Rossi-Ave-94118/home/176163381,San Francisco MLS,421585571,N,Y,37.77882,-122.4562316
MLS Listing,,Multi-Family (2-4 Unit),55 - 57 Norton St,San Francisco,CA,94112,759000,4,2.0,San Francisco,1900,2495,1908,3,399,,Active,August-24-2021 02:00 PM,August-24-2021 03:30 PM,http://www.redfin.com/CA/San-Francisco/55-Norton-St-94112/home/1557831,San Francisco MLS,421585875,N,Y,37.7248765,-122.4359776
MLS Listing,,Single Family Residential,2780 23rd St,San Francisco,CA,94110,1395000,2,1.5,San Francisco,1252,727,1928,3,1114,,Active,August-29-2021 02:00 PM,August-29-2021 04:00 PM,http://www.redfin.com/CA/San-Francisco/2780-23rd-St-94110/home/734650,San Francisco MLS,421585954,N,Y,37.7545958,-122.4080237
MLS Listing,,Condo/Co-op,920 Haight St,San Francisco,CA,94117,2495000,5,3.0,San Francisco,3150,2813,1904,3,792,681,Active,,,http://www.redfin.com/CA/San-Francisco/920-Haight-St-94117/home/1974819,San Francisco MLS,421586985,N,Y,37.7714559,-122.4375747
MLS Listing,,Multi-Family (2-4 Unit),112 - 118 Shotwell St,San Francisco,CA,94103,1700000,4,2.0,San Francisco,2306,1799,1914,3,737,,Active,,,http://www.redfin.com/CA/San-Francisco/112-Shotwell-St-94103/home/703812,San Francisco MLS,421586750,N,Y,37.7665108,-122.4167275
MLS Listing,,Single Family Residential,355 Hearst Ave,San Francisco,CA,94112,1348000,3,2.0,Sunnyside,1606,2809,1910,3,839,,Active,August-24-2021 04:00 PM,August-24-2021 07:00 PM,http://www.redfin.com/CA/San-Francisco/355-Hearst-Ave-94112/home/2011046,"bridgeMLS, Bay East AOR, or Contra Costa AOR",40963953,N,Y,37.7305335,-122.4455848
MLS Listing,,Multi-Family (2-4 Unit),1023 Broadway,San Francisco,CA,94133,2000000,6,5.0,San Francisco,,,1908,3,,,Active,,,http://www.redfin.com/CA/San-Francisco/1023-Broadway-94133/unit-1023/home/1161321,San Francisco MLS,421586078,N,Y,37.7967732,-122.4139627
MLS Listing,,Single Family Residential,1174 Goettingen St,San Francisco,CA,94134,988000,3,2.0,San Francisco,1125,1711,1947,3,878,,Active,August-28-2021 02:00 PM,August-28-2021 04:00 PM,http://www.redfin.com/CA/San-Francisco/1174-Goettingen-St-94134/home/1397281,San Francisco MLS,421585982,N,Y,37.7175281,-122.4028906
MLS Listing,,Single Family Residential,39 Santa Marina St,San Francisco,CA,94110,1295000,3,2.0,San Francisco,1311,1023,1906,3,988,,Active,,,http://www.redfin.com/CA/San-Francisco/39-Santa-Marina-St-94110/home/23424462,San Francisco MLS,421585851,N,Y,37.7403998,-122.4221937
MLS Listing,,Single Family Residential,883 Carolina St,San Francisco,CA,94107,1400000,2,1.0,San Francisco,975,2500,1909,3,1436,,Active,August-24-2021 02:00 PM,August-24-2021 03:30 PM,http://www.redfin.com/CA/San-Francisco/883-Carolina-St-94107/home/1565623,San Francisco MLS,421585985,N,Y,37.7575253,-122.3996713
MLS Listing,,Multi-Family (5+ Unit),1110 Jackson St,San Francisco,CA,94133,3950000,0,,San Francisco,6639,2980,1961,3,595,,Active,,,http://www.redfin.com/CA/San-Francisco/1110-Jackson-St-94133/home/1925190,San Francisco MLS,421587046,N,Y,37.7953179,-122.4135369
MLS Listing,,Condo/Co-op,1885 Jackson St #402,San Francisco,CA,94109,1089000,2,2.0,San Francisco,,6524,1962,3,,965,Active,August-24-2021 10:00 AM,August-24-2021 11:30 AM,http://www.redfin.com/CA/San-Francisco/1885-Jackson-St-94109/unit-402/home/1312692,San Francisco MLS,421585424,N,Y,37.7933262,-122.4257994
MLS Listing,,Vacant Land,203 Gellert Dr,San Francisco,CA,94132,750000,0,,San Francisco,,7161,,3,,,Active,,,http://www.redfin.com/CA/San-Francisco/203-Gellert-Dr-94132/home/176159692,San Francisco MLS,421585968,N,Y,37.7300017,-122.4929418
MLS Listing,,Vacant Land,209 Gellert Dr,San Francisco,CA,94132,678000,0,,San Francisco,,5258,,3,,,Active,,,http://www.redfin.com/CA/San-Francisco/209-Gellert-Dr-94132/home/176159691,San Francisco MLS,421585653,N,Y,37.7298896,-122.4928994
MLS Listing,,Condo/Co-op,711 Central Ave,San Francisco,CA,94117,1195000,3,1.5,San Francisco,,1856,,3,,300,Active,,,http://www.redfin.com/CA/San-Francisco/711-Central-Ave-94117/home/1705795,San Francisco MLS,421580490,N,Y,37.776197,-122.445057
MLS Listing,,Single Family Residential,54 Uranus Ter,San Francisco,CA,94114,2995000,3,2.5,San Francisco,2111,2317,1924,3,1419,,Active,,,http://www.redfin.com/CA/San-Francisco/54-Uranus-Ter-94114/home/672206,San Francisco MLS,421586680,N,Y,37.7611077,-122.445806
MLS Listing,,Single Family Residential,22 Modoc Ave,San Francisco,CA,94112,998000,2,1.5,San Francisco,1214,2687,,3,822,,Active,,,http://www.redfin.com/CA/San-Francisco/22-Modoc-Ave-94112/home/827951,San Francisco MLS,421586719,N,Y,37.7152065,-122.4490682
MLS Listing,,Condo/Co-op,83 Mcallister St #508,San Francisco,CA,94102,685000,2,1.0,San Francisco,,7498,2007,3,,522,Active,,,http://www.redfin.com/CA/San-Francisco/83-McAllister-St-94102/unit-508/home/23423720,San Francisco MLS,421586595,N,Y,37.7806658,-122.413234
MLS Listing,,Single Family Residential,335 Congo St,San Francisco,CA,94131,1249000,2,1.0,San Francisco,1075,2495,1927,3,1162,,Active,,,http://www.redfin.com/CA/San-Francisco/335-Congo-St-94131/home/691235,San Francisco MLS,421586082,N,Y,37.7321001,-122.4422783
MLS Listing,,Condo/Co-op,2179 Ofarrell St,San Francisco,CA,94115,1399000,3,2.5,San Francisco,,,,3,,200,Active,,,http://www.redfin.com/CA/San-Francisco/2179-O-Farrell-St-94115/home/176159690,San Francisco MLS,421578782,N,Y,37.7821665,-122.4405471
MLS Listing,,Condo/Co-op,2177 Ofarrell St,San Francisco,CA,94115,1549000,3,2.5,San Francisco,,,,3,,225,Active,,,http://www.redfin.com/CA/San-Francisco/2177-O-Farrell-St-94115/home/1452061,San Francisco MLS,421578778,N,Y,37.7821004,-122.4405383
MLS Listing,,Single Family Residential,56 Morningside Dr,San Francisco,CA,94132,1795000,4,2.5,San Francisco,2249,3184,1951,3,798,,Active,,,http://www.redfin.com/CA/San-Francisco/56-Morningside-Dr-94132/home/1689128,San Francisco MLS,421563380,N,Y,37.7327992,-122.4921193
MLS Listing,,Condo/Co-op,765 Market St Unit 34A,San Francisco,CA,94103,9900000,4,4.5,San Francisco,4550,,,3,2176,3939,Active,,,http://www.redfin.com/CA/San-Francisco/765-Market-St-94103/unit-34A/home/1537008,San Francisco MLS,421587017,N,Y,37.786097,-122.4041629
MLS Listing,,Condo/Co-op,29 Medau Pl,San Francisco,CA,94133,775000,1,1.0,San Francisco,750,11021,1908,3,1033,450,Active,,,http://www.redfin.com/CA/San-Francisco/29-Medau-Pl-94133/home/2020641,San Francisco MLS,421586862,N,Y,37.8018218,-122.4083417
MLS Listing,,Condo/Co-op,1750 Taylor St #1401,San Francisco,CA,94133,7995000,2,2.5,San Francisco,3640,,1961,4,2196,4490,Active,,,http://www.redfin.com/CA/San-Francisco/1750-Taylor-St-94133/unit-1401/home/12400389,San Francisco MLS,421585752,N,Y,37.7986997,-122.4137602
MLS Listing,,Condo/Co-op,1180 Eddy St Unit B,San Francisco,CA,94109,849999,2,2.0,San Francisco,816,2575,1992,4,1042,398,Active,August-24-2021 11:00 AM,August-24-2021 12:30 PM,http://www.redfin.com/CA/San-Francisco/1180-Eddy-St-94109/unit-B/home/1926432,San Francisco MLS,421586991,N,Y,37.7822647,-122.4270935
MLS Listing,,Condo/Co-op,246 2nd St #706,San Francisco,CA,94105,1195000,2,2.0,San Francisco,1101,12933,2000,4,1085,692,Active,August-25-2021 12:00 PM,August-25-2021 01:30 PM,http://www.redfin.com/CA/San-Francisco/246-2nd-St-94105/unit-706/home/849606,San Francisco MLS,421586864,N,Y,37.7858817,-122.3974144
MLS Listing,,Single Family Residential,2511 42nd Ave,SAN FRANCISCO,CA,94116,1500000,3,2.0,SAN FRANCISCO,1500,2060,1948,4,1000,,Active,,,http://www.redfin.com/CA/San-Francisco/2511-42nd-Ave-94116/home/934156,MLSListings,ML81859244,N,Y,37.7398217,-122.5004121
MLS Listing,,Condo/Co-op,1945 Washington St #204,San Francisco,CA,94109,1295000,2,2.0,San Francisco,937,17557,1987,4,1382,616,Active,,,http://www.redfin.com/CA/San-Francisco/1945-Washington-St-94109/unit-204/home/1153418,San Francisco MLS,421585984,N,Y,37.7925414,-122.4254555
MLS Listing,,Condo/Co-op,53 Wilder St #204,San Francisco,CA,94131,1195000,2,2.0,San Francisco,1301,15674,2006,4,919,730,Active,,,http://www.redfin.com/CA/San-Francisco/53-Wilder-St-94131/unit-204/home/17304563,San Francisco MLS,421586591,N,Y,37.7339289,-122.4334952
MLS Listing,,Single Family Residential,228 Ewing Ter,San Francisco,CA,94118,1200000,2,1.0,San Francisco,1250,2119,1940,4,960,,Active,,,http://www.redfin.com/CA/San-Francisco/228-Ewing-Ter-94118/home/2015837,San Francisco MLS,421586926,N,Y,37.7801629,-122.4491941
MLS Listing,,Condo/Co-op,3653 Buchanan St #1,SAN FRANCISCO,CA,94123,1688000,3,2.0,SAN FRANCISCO,1678,,2006,4,1006,350,Active,,,http://www.redfin.com/CA/San-Francisco/3653-Buchanan-St-94123/unit-1/home/12402116,MLSListings,ML81859214,N,Y,37.8037387,-122.4337406
MLS Listing,,Condo/Co-op,946 De Haro St Unit A,San Francisco,CA,94107,1330000,3,2.0,San Francisco,1834,2500,1906,4,725,400,Active,August-24-2021 02:00 PM,August-24-2021 03:30 PM,http://www.redfin.com/CA/San-Francisco/946-De-Haro-St-94107/unit-A/home/176157166,San Francisco MLS,421586905,N,Y,37.757994,-122.4011759
MLS Listing,,Condo/Co-op,1200 Gough St Unit 13C,San Francisco,CA,94109,960000,1,1.0,San Francisco,840,44676,1966,4,1143,831,Active,August-24-2021 09:00 AM,August-24-2021 10:30 AM,http://www.redfin.com/CA/San-Francisco/1200-Gough-St-94109/unit-13C/home/1260518,San Francisco MLS,421579203,N,Y,37.7849434,-122.4242824
MLS Listing,,Condo/Co-op,77 Van Ness Ave #604,San Francisco,CA,94102,899000,1,1.0,San Francisco,847,13040,2009,4,1061,460,Active,,,http://www.redfin.com/CA/San-Francisco/77-Van-Ness-Ave-94102/unit-604/home/40138550,San Francisco MLS,421586445,N,Y,37.7760549,-122.4199372
MLS Listing,,Condo/Co-op,675 Cole St #8,San Francisco,CA,94117,695000,1,1.0,San Francisco,,4238,1961,4,,336,Active,,,http://www.redfin.com/CA/San-Francisco/675-Cole-St-94117/unit-8/home/176156800,San Francisco MLS,421586807,N,Y,37.76874,-122.4508046
MLS Listing,,Single Family Residential,225 Locust St,San Francisco,CA,94118,7500000,6,6.5,San Francisco,4737,2777,1929,4,1583,,Active,,,http://www.redfin.com/CA/San-Francisco/225-Locust-St-94118/home/962112,San Francisco MLS,421586805,N,Y,37.7888764,-122.4524076
MLS Listing,,Single Family Residential,106 Collins St,San Francisco,CA,94118,2895000,3,2.0,San Francisco,2141,3955,1950,4,1352,,Active,August-25-2021 05:30 PM,August-25-2021 07:30 PM,http://www.redfin.com/CA/San-Francisco/106-Collins-St-94118/home/1659713,San Francisco MLS,421586793,N,Y,37.7841556,-122.4499749
MLS Listing,,Single Family Residential,520 Noriega St,San Francisco,CA,94122,1995000,4,2.0,San Francisco,,2578,,4,,,Active,August-24-2021 01:00 PM,August-24-2021 02:30 PM,http://www.redfin.com/CA/San-Francisco/520-Noriega-St-94122/home/2010663,San Francisco MLS,421585820,N,Y,37.7554978,-122.4694351
MLS Listing,,Single Family Residential,1670 Newcomb Ave,San Francisco,CA,94124,850000,2,1.0,San Francisco,1041,2495,1936,4,817,,Active,,,http://www.redfin.com/CA/San-Francisco/1670-Newcomb-Ave-94124/home/1293140,San Francisco MLS,421586782,N,Y,37.7362345,-122.3909912
MLS Listing,,Condo/Co-op,2701 Van Ness Ave #211,SAN FRANCISCO,CA,94109,849000,1,1.0,SAN FRANCISCO,768,,1929,4,1105,606,Active,August-24-2021 10:30 AM,August-24-2021 12:00 PM,http://www.redfin.com/CA/San-Francisco/2701-Van-Ness-Ave-94109/unit-211/home/2003082,MLSListings,ML81859164,N,Y,37.800573,-122.424849
MLS Listing,,Condo/Co-op,1945 Hyde St #2,San Francisco,CA,94109,3800000,2,2.0,San Francisco,,6686,1920,4,,1382,Active,,,http://www.redfin.com/CA/San-Francisco/1945-Hyde-St-94109/unit-2/home/51589310,San Francisco MLS,421585854,N,Y,37.7988384,-122.4192514
MLS Listing,,Single Family Residential,425 Morse St,San Francisco,CA,94112,998000,4,2.0,San Francisco,1156,1875,1929,4,863,,Active,August-28-2021 02:00 PM,August-28-2021 04:00 PM,http://www.redfin.com/CA/San-Francisco/425-Morse-St-94112/home/796142,San Francisco MLS,421586783,N,Y,37.7121134,-122.4420305
MLS Listing,,Condo/Co-op,555 Golden Gate Ave Unit 4I,San Francisco,CA,94102,998000,2,2.0,San Francisco,912,,2021,4,1094,696,Active,,,http://www.redfin.com/CA/San-Francisco/555-Golden-Gate-Ave-94102/unit-4I/home/176156598,San Francisco MLS,421586080,N,Y,37.7808655,-122.4196054
MLS Listing,,Condo/Co-op,1590 Golden Gate Ave Unit B,San Francisco,CA,94115,1195000,2,2.0,San Francisco,1242,3300,1991,4,962,361,Active,August-26-2021 05:00 PM,August-26-2021 06:30 PM,http://www.redfin.com/CA/San-Francisco/1590-Golden-Gate-Ave-94115/unit-B/home/577276,San Francisco MLS,421586722,N,Y,37.77922,-122.43667
MLS Listing,,Single Family Residential,634 29th Ave,SAN FRANCISCO,CA,94121,1658000,3,2.0,SAN FRANCISCO,1745,2996,1914,4,950,,Active,August-28-2021 02:00 PM,August-28-2021 04:30 PM,http://www.redfin.com/CA/San-Francisco/634-29th-Ave-94121/home/617978,MLSListings,ML81859142,N,Y,37.7772867,-122.4886272
MLS Listing,,Vacant Land,6101 Geary Blvd,San Francisco,CA,94121,1528000,0,,San Francisco,,4850,,4,,,Active,,,http://www.redfin.com/CA/San-Francisco/6101-Geary-Blvd-94121/home/176156355,San Francisco MLS,421584476,N,Y,37.7798154,-122.4849192
MLS Listing,,Condo/Co-op,264 Henry St,San Francisco,CA,94114,1395000,2,1.0,San Francisco,1250,4197,1905,4,1116,235,Active,August-24-2021 12:00 PM,August-24-2021 01:30 PM,http://www.redfin.com/CA/San-Francisco/264-Henry-St-94114/home/1857814,San Francisco MLS,421585949,N,Y,37.7666907,-122.4368895
MLS Listing,,Condo/Co-op,1451 Montgomery St #7,San Francisco,CA,94133,1099000,1,1.0,San Francisco,806,5378,1975,4,1364,823,Active,August-24-2021 09:00 AM,August-24-2021 10:30 AM,http://www.redfin.com/CA/San-Francisco/1451-Montgomery-St-94133/unit-7/home/539060,San Francisco MLS,421583236,N,Y,37.8026699,-122.4049528
MLS Listing,,Single Family Residential,2230 Larkin St,San Francisco,CA,94109,1995000,2,2.0,San Francisco,1660,1768,1922,4,1202,,Active,August-28-2021 11:00 AM,August-28-2021 01:00 PM,http://www.redfin.com/CA/San-Francisco/2230-Larkin-St-94109/home/1707034,San Francisco MLS,421579268,N,Y,37.7985531,-122.4203907
MLS Listing,,Condo/Co-op,2856 Washington,San Francisco,CA,94115,1990000,3,2.0,Pacific Heights,1537,,1890,4,1295,400,Active,August-29-2021 02:00 PM,August-29-2021 05:00 PM,http://www.redfin.com/CA/San-Francisco/2856-Washington-St-94115/home/1920549,"bridgeMLS, Bay East AOR, or Contra Costa AOR",40963811,N,Y,37.7910785,-122.4404204
MLS Listing,,Single Family Residential,751 38th Ave,San Francisco,CA,94121,1400000,3,2.0,San Francisco,1576,3088,1924,4,888,,Active,,,http://www.redfin.com/CA/San-Francisco/751-38th-Ave-94121/home/1041258,San Francisco MLS,421586277,N,Y,37.7746993,-122.4985301
MLS Listing,,Condo/Co-op,167 Pfeiffer St,San Francisco,CA,94133,995000,2,1.0,San Francisco,970,1059,1907,4,1026,275,Active,,,http://www.redfin.com/CA/San-Francisco/167-Pfeiffer-St-94133/home/538742,San Francisco MLS,421585551,N,Y,37.8046227,-122.4093935
MLS Listing,,Condo/Co-op,1933 - B Jones St,San Francisco,CA,94133,1195000,3,2.0,San Francisco,,3000,1924,4,,260,Active,August-24-2021 09:00 AM,August-24-2021 10:30 AM,http://www.redfin.com/CA/San-Francisco/1933-Jones-St-94133/home/28890456,San Francisco MLS,421566172,N,Y,37.7992161,-122.4159659
MLS Listing,,Condo/Co-op,555 Golden Gate Ave Unit 7C,San Francisco,CA,94102,918000,2,1.0,San Francisco,834,,2021,4,1101,596,Active,,,http://www.redfin.com/CA/San-Francisco/555-Golden-Gate-Ave-94102/unit-7C/home/176155871,San Francisco MLS,421586081,N,Y,37.7808655,-122.4196054
MLS Listing,,Single Family Residential,1614 Diamond St,San Francisco,CA,94131,2725000,3,2.5,San Francisco,2021,2926,1910,4,1348,,Active,August-24-2021 12:00 PM,August-24-2021 01:30 PM,http://www.redfin.com/CA/San-Francisco/1614-Diamond-St-94131/home/1415955,San Francisco MLS,421585573,N,Y,37.7444799,-122.4359553
MLS Listing,,Condo/Co-op,2415 Van Ness Ave #603,San Francisco,CA,94109,658000,1,1.0,San Francisco,629,5520,1929,4,1046,650,Active,August-25-2021 05:00 PM,August-25-2021 07:00 PM,http://www.redfin.com/CA/San-Francisco/2415-Van-Ness-Ave-94109/unit-603/home/1078915,San Francisco MLS,421585869,N,Y,37.797885,-122.424243
MLS Listing,,Single Family Residential,516 Ramsell St,San Francisco,CA,94132,1259000,4,3.0,San Francisco,1780,2495,1927,4,707,,Active,August-24-2021 01:00 PM,August-24-2021 02:30 PM,http://www.redfin.com/CA/San-Francisco/516-Ramsell-St-94132/home/2037886,San Francisco MLS,421583067,N,Y,37.7200781,-122.466063
MLS Listing,,Single Family Residential,169 Putnam St,San Francisco,CA,94110,1395000,3,2.0,San Francisco,1320,1751,1959,4,1057,,Active,August-24-2021 02:00 PM,August-24-2021 03:30 PM,http://www.redfin.com/CA/San-Francisco/169-Putnam-St-94110/home/761119,San Francisco MLS,421583346,N,Y,37.7373087,-122.4108335
MLS Listing,,Condo/Co-op,971 Lombard St,San Francisco,CA,94133,1495000,2,1.0,San Francisco,1600,3780,1908,4,934,200,Active,,,http://www.redfin.com/CA/San-Francisco/971-Lombard-St-94133/home/1126043,San Francisco MLS,421586638,N,Y,37.8021525,-122.4174654
MLS Listing,,Multi-Family (5+ Unit),875 Broadway St,San Francisco,CA,94133,3800000,0,,San Francisco,5027,3919,1958,4,756,,Active,,,http://www.redfin.com/CA/San-Francisco/875-Broadway-94133/home/1355681,San Francisco MLS,421585846,N,Y,37.7969435,-122.4113756
MLS Listing,,Single Family Residential,2358 41st Ave,San Francisco,CA,94116,1095000,2,1.0,San Francisco,1176,3000,1955,4,931,,Active,,,http://www.redfin.com/CA/San-Francisco/2358-41st-Ave-94116/home/1246229,San Francisco MLS,421585432,N,Y,37.7427773,-122.4991367
MLS Listing,,Single Family Residential,50 Juanita Way,San Francisco,CA,94127,1500000,2,1.0,San Francisco,1125,3001,1937,4,1333,,Active,August-28-2021 02:00 PM,August-28-2021 04:00 PM,http://www.redfin.com/CA/San-Francisco/50-Juanita-Way-94127/home/1694231,San Francisco MLS,421565736,N,Y,37.7441208,-122.4525845
MLS Listing,,Single Family Residential,259 Madrid St,San Francisco,CA,94112,998888,3,3.0,San Francisco,,2500,1922,4,,,Active,,,http://www.redfin.com/CA/San-Francisco/259-Madrid-St-94112/home/1158751,San Francisco MLS,421585879,N,Y,37.7252674,-122.42977
MLS Listing,,Single Family Residential,142 Brighton Ave,San Francisco,CA,94112,928000,5,1.0,San Francisco,1535,2896,1904,4,605,,Active,August-24-2021 01:00 PM,August-24-2021 02:30 PM,http://www.redfin.com/CA/San-Francisco/142-Brighton-Ave-94112/home/1195403,San Francisco MLS,421585863,N,Y,37.7208475,-122.4549419
MLS Listing,,Condo/Co-op,874 Lombard St,San Francisco,CA,94133,899000,2,1.0,San Francisco,,,1913,4,,,Active,August-24-2021 09:00 AM,August-24-2021 10:30 AM,http://www.redfin.com/CA/San-Francisco/874-Lombard-St-94133/home/544102,San Francisco MLS,421585478,N,Y,37.8026992,-122.4159224
MLS Listing,,Condo/Co-op,333 Beale St Unit 6E,San Francisco,CA,94105,1950000,2,2.0,San Francisco,1630,75406,2015,4,1196,1300,Active,,,http://www.redfin.com/CA/San-Francisco/333-Beale-St-94105/unit-6E/home/109464596,San Francisco MLS,421578462,N,Y,37.7884937,-122.3918797
MLS Listing,,Condo/Co-op,870 Harrison St #402,San Francisco,CA,94107,738000,1,1.0,San Francisco,,5843,2015,4,,650,Active,,,http://www.redfin.com/CA/San-Francisco/870-Harrison-St-94107/unit-402/home/109686951,San Francisco MLS,421563641,N,Y,37.7797695,-122.401375
MLS Listing,,Single Family Residential,1651 47th Ave,San Francisco,CA,94122,1100000,4,,San Francisco,1175,2996,1948,4,936,,Active,,,http://www.redfin.com/CA/San-Francisco/1651-47th-Ave-94122/home/2013160,BAREIS,421585379,N,Y,37.7556675,-122.5069507
MLS Listing,,Single Family Residential,121 Ortega St,San Francisco,CA,94122,1895000,3,2.5,San Francisco,1800,2495,1914,5,1053,,Active,August-29-2021 02:00 PM,August-29-2021 04:00 PM,http://www.redfin.com/CA/San-Francisco/121-Ortega-St-94122/home/1485464,San Francisco MLS,421583570,N,Y,37.752629,-122.465025
MLS Listing,,Condo/Co-op,199 New Montgomery St #509,SAN FRANCISCO,CA,94105,815000,1,1.0,SAN FRANCISCO,737,,2004,5,1106,584,Active,,,http://www.redfin.com/CA/San-Francisco/199-New-Montgomery-St-94105/unit-509/home/12401482,MLSListings,ML81859031,N,Y,37.7866287,-122.3991624
MLS Listing,,Condo/Co-op,650 Delancey St #107,San Francisco,CA,94107,1950000,2,2.0,San Francisco,1554,61922,1996,5,1255,693,Active,,,http://www.redfin.com/CA/San-Francisco/650-Delancey-St-94107/unit-107/home/12396309,San Francisco MLS,421585989,N,Y,37.7828055,-122.3896538
MLS Listing,,Single Family Residential,215 Shields St,San Francisco,CA,94132,988000,3,2.0,San Francisco,1912,2495,1961,5,517,,Active,,,http://www.redfin.com/CA/San-Francisco/215-Shields-St-94132/home/828616,San Francisco MLS,421586401,N,Y,37.717723,-122.4647915
MLS Listing,,Single Family Residential,1735 39th Ave,San Francisco,CA,94122,1095000,3,1.0,San Francisco,1009,2962,1943,5,1085,,Active,,,http://www.redfin.com/CA/San-Francisco/1735-39th-Ave-94122/home/1548402,San Francisco MLS,421586083,N,Y,37.7544631,-122.498222
MLS Listing,,Single Family Residential,1334 Visitacion Ave,San Francisco,CA,94132,999000,2,2.0,San Francisco,1103,1846,1942,5,906,,Active,,,http://www.redfin.com/CA/San-Francisco/1334-Visitacion-Ave-94134/home/1065510,San Francisco MLS,421585862,N,Y,37.7127938,-122.4121167
MLS Listing,,Condo/Co-op,456 Lake St,San Francisco,CA,94118,2995000,4,3.0,San Francisco,2941,2184,1912,5,1018,,Active,,,http://www.redfin.com/CA/San-Francisco/456-Lake-St-94118/home/1668518,San Francisco MLS,421569334,N,Y,37.786906,-122.464544
MLS Listing,,Single Family Residential,10 Apollo St,SAN FRANCISCO,CA,94124,899000,3,1.0,SAN FRANCISCO,952,2287,1945,5,944,,Active,August-28-2021 01:00 PM,August-28-2021 04:00 PM,http://www.redfin.com/CA/San-Francisco/10-Apollo-St-94124/home/748422,MLSListings,ML81858926,N,Y,37.7326389,-122.397359
MLS Listing,,Single Family Residential,65 Rebecca Ln,San Francisco,CA,94124,899000,2,2.0,San Francisco,1383,992,1992,5,650,65,Active,,,http://www.redfin.com/CA/San-Francisco/65-Rebecca-Ln-94124/home/743201,San Francisco MLS,421583579,N,Y,37.7380778,-122.3834015
MLS Listing,,Condo/Co-op,1967 Clay St,San Francisco,CA,94109,2295000,3,2.5,San Francisco,1935,3662,1938,5,1186,493,Active,August-24-2021 10:00 AM,August-24-2021 11:30 AM,http://www.redfin.com/CA/San-Francisco/1967-Clay-St-94109/home/12402120,San Francisco MLS,421585566,N,Y,37.791569,-122.425289
MLS Listing,,Multi-Family (5+ Unit),793 Clayton St,San Francisco,CA,94117,3150000,0,,San Francisco,6354,2616,1904,5,496,,Active,,,http://www.redfin.com/CA/San-Francisco/793-Clayton-St-94117/home/1128175,San Francisco MLS,421583861,N,Y,37.7671874,-122.4483355
MLS Listing,,Condo/Co-op,5800 3rd St #1315,San Francisco,CA,94124,669000,1,1.0,San Francisco,889,,2011,5,753,446,Active,,,http://www.redfin.com/CA/San-Francisco/5800-3rd-St-94124/unit-1315/home/40629110,San Francisco MLS,421585852,N,Y,37.7253452,-122.3948096
MLS Listing,,Condo/Co-op,1101 Pacific Ave #501,San Francisco,CA,94133,1890000,3,2.0,San Francisco,1458,4839,2000,5,1296,1165,Active,,,http://www.redfin.com/CA/San-Francisco/1101-Pacific-Ave-94133/unit-501/home/1537503,San Francisco MLS,421560570,N,Y,37.7959655,-122.4135828
MLS Listing,,Single Family Residential,23 5th Ave,San Francisco,CA,94118,4995000,5,3.0,San Francisco,3561,4200,1904,5,1403,,Active,,,http://www.redfin.com/CA/San-Francisco/23-5th-Ave-94118/home/607145,San Francisco MLS,421554153,N,Y,37.7882939,-122.4640839
MLS Listing,,Multi-Family (5+ Unit),1517 Waller St,San Francisco,CA,94117,2495000,0,,San Francisco,4500,2719,1907,6,554,,Active,,,http://www.redfin.com/CA/San-Francisco/1517-Waller-St-94117/home/2012905,San Francisco MLS,421585870,N,Y,37.7686549,-122.4488772
MLS Listing,,Condo/Co-op,1200 Gough St Unit 10C,San Francisco,CA,94109,799000,1,1.0,San Francisco,840,44676,1966,6,951,831,Active,,,http://www.redfin.com/CA/San-Francisco/1200-Gough-St-94109/unit-10C/home/1942338,San Francisco MLS,421585264,N,Y,37.7849434,-122.4242824
MLS Listing,,Single Family Residential,326 27th St,San Francisco,CA,94131,1200000,0,1.0,San Francisco,410,3419,1906,6,2927,,Active,,,http://www.redfin.com/CA/San-Francisco/326-27th-St-94131/home/1680721,San Francisco MLS,421585853,N,Y,37.7470157,-122.4277738
MLS Listing,,Condo/Co-op,5810 Mission St #409,San Francisco,CA,94112,819000,2,2.0,San Francisco,1125,20261,1998,6,728,659,Active,,,http://www.redfin.com/CA/San-Francisco/5810-Mission-St-94112/unit-409/home/1321517,San Francisco MLS,421585265,N,Y,37.7095133,-122.4515186
MLS Listing,,Condo/Co-op,49 Pearl St,San Francisco,CA,94103,1195000,2,1.5,San Francisco,,1840,1908,6,,260,Active,,,http://www.redfin.com/CA/San-Francisco/49-Pearl-St-94103/home/1097655,San Francisco MLS,421585425,N,Y,37.7705999,-122.4237171
MLS Listing,,Condo/Co-op,346 1st St #109,San Francisco,CA,94105,995000,2,2.0,San Francisco,1059,9938,1928,6,940,623,Active,,,http://www.redfin.com/CA/San-Francisco/346-1st-St-94105/unit-109/home/1971038,San Francisco MLS,421585767,N,Y,37.786486,-122.3940253
MLS Listing,,Condo/Co-op,453 Eureka St,San Francisco,CA,94114,2395000,3,2.5,San Francisco,2304,1406,1997,6,1039,,Active,August-24-2021 12:00 PM,August-24-2021 01:30 PM,http://www.redfin.com/CA/San-Francisco/453-Eureka-St-94114/home/1034265,San Francisco MLS,421585535,N,Y,37.755011,-122.437413
MLS Listing,,Single Family Residential,1910 Palou Ave,San Francisco,CA,94124,1388000,5,5.0,San Francisco,3206,2495,1900,6,433,,Active,,,http://www.redfin.com/CA/San-Francisco/1910-Palou-Ave-94124/home/745243,San Francisco MLS,421585753,N,Y,37.737507,-122.396598
MLS Listing,,Condo/Co-op,1360 Montgomery St #11,San Francisco,CA,94133,3499000,2,2.0,San Francisco,1550,,1936,6,2257,1172,Active,,,http://www.redfin.com/CA/San-Francisco/1360-Montgomery-St-94133/unit-11/home/1466173,"bridgeMLS, Bay East AOR, or Contra Costa AOR",40963423,N,Y,37.8017784,-122.4044008
MLS Listing,,Single Family Residential,742 Avalon Ave,San Francisco,CA,94112,1288800,5,4.0,Excelsior,1780,2500,1950,6,724,,Active,August-28-2021 01:00 PM,August-28-2021 04:00 PM,http://www.redfin.com/CA/San-Francisco/742-Avalon-Ave-94112/home/1566546,"bridgeMLS, Bay East AOR, or Contra Costa AOR",40963416,N,Y,37.7246339,-122.426364
MLS Listing,,Condo/Co-op,1979 Clay St,San Francisco,CA,94109,2700000,4,3.0,San Francisco,2718,3661,1938,7,993,475,Active,,,http://www.redfin.com/CA/San-Francisco/1979-Clay-St-94109/home/1585202,San Francisco MLS,421578001,N,Y,37.791545,-122.425483
MLS Listing,,Condo/Co-op,170 Pacific St #19,San Francisco,CA,94111,2198000,3,3.0,San Francisco,1993,89586,1986,7,1103,1178,Active,,,http://www.redfin.com/CA/San-Francisco/170-Pacific-Ave-94111/unit-19/home/102819197,San Francisco MLS,421584309,N,Y,37.798253,-122.399172
MLS Listing,,Condo/Co-op,490 Connecticut St #5,San Francisco,CA,94107,498000,0,1.0,San Francisco,,3746,1940,7,,160,Active,,,http://www.redfin.com/CA/San-Francisco/490-Connecticut-St-94107/unit-5/home/176132169,San Francisco MLS,421585609,N,Y,37.760116,-122.3974807
MLS Listing,,Condo/Co-op,490 Connecticut St #4,San Francisco,CA,94107,798000,1,1.0,San Francisco,,3746,1940,7,,300,Active,,,http://www.redfin.com/CA/San-Francisco/490-Connecticut-St-94107/unit-4/home/176132168,San Francisco MLS,421585508,N,Y,37.760116,-122.3974807
MLS Listing,,Condo/Co-op,195 7th St #102,San Francisco,CA,94103,455000,0,1.0,San Francisco,364,4500,,7,1250,395,Active,,,http://www.redfin.com/CA/San-Francisco/195-7th-St-94103/unit-102/home/719094,San Francisco MLS,421585586,N,Y,37.7783013,-122.4094944
MLS Listing,,Multi-Family (5+ Unit),2565 Washington St,San Francisco,CA,94115,3625000,3,3.0,San Francisco,6198,3188,1915,7,585,,Active,August-29-2021 02:00 PM,August-29-2021 04:00 PM,http://www.redfin.com/CA/San-Francisco/2565-Washington-St-94115/home/1331335,San Francisco MLS,421583879,N,Y,37.7913488,-122.4353921
MLS Listing,,Condo/Co-op,1960 Broadway #5,San Francisco,CA,94109,4500000,3,3.0,San Francisco,2794,16839,1925,7,1611,3263,Active,,,http://www.redfin.com/CA/San-Francisco/1960-Broadway-94109/unit-005/home/12400820,San Francisco MLS,421529235,N,Y,37.795316,-122.42946
MLS Listing,,Multi-Family (5+ Unit),325 - 375 Castro St,San Francisco,CA,94114,2500000,0,,San Francisco,3300,1812,1900,7,758,,Active,,,http://www.redfin.com/CA/San-Francisco/325-Castro-St-94114/unit-375/home/146964607,San Francisco MLS,421585036,N,Y,37.7633604,-122.4350677
MLS Listing,,Condo/Co-op,225 Upper Ter,San Francisco,CA,94117,1049000,2,2.0,San Francisco,1005,1835,1962,7,1044,400,Active,,,http://www.redfin.com/CA/San-Francisco/225-Upper-Ter-94117/home/28939059,San Francisco MLS,421585438,N,Y,37.763154,-122.444579
MLS Listing,,Condo/Co-op,223 Upper Ter,San Francisco,CA,94117,1495000,3,2.0,San Francisco,1493,1835,1962,7,1001,600,Active,,,http://www.redfin.com/CA/San-Francisco/223-Upper-Ter-94117/home/934378,San Francisco MLS,421585428,N,Y,37.763154,-122.444579
MLS Listing,,Condo/Co-op,4787 18th St,San Francisco,CA,94114,1195000,2,1.0,San Francisco,1138,2026,1948,7,1050,230,Active,August-24-2021 12:00 PM,August-24-2021 01:30 PM,http://www.redfin.com/CA/San-Francisco/4787-18th-St-94114/home/677286,San Francisco MLS,421576859,N,Y,37.759488,-122.444413
MLS Listing,,Condo/Co-op,239 Brannan St Unit 8D,San Francisco,CA,94107,1395000,2,2.0,San Francisco,1173,82966,2002,7,1189,1229,Active,,,http://www.redfin.com/CA/San-Francisco/239-Brannan-St-94107/unit-8D/home/1086721,San Francisco MLS,421585082,N,Y,37.782662,-122.39058
MLS Listing,,Condo/Co-op,301 Mission St Unit 19G,San Francisco,CA,94105,1750000,2,2.0,San Francisco,1246,50667,2009,7,1404,1665,Active,,,http://www.redfin.com/CA/San-Francisco/301-Mission-St-94105/unit-19G/home/40138808,San Francisco MLS,421584304,N,Y,37.7903824,-122.3961531
MLS Listing,,Multi-Family (5+ Unit),1320 - 1326 Mcallister St,San Francisco,CA,94115,1895000,0,,San Francisco,6330,2391,1900,7,299,,Active,,,http://www.redfin.com/CA/San-Francisco/1320-McAllister-St-94115/home/1877307,San Francisco MLS,421585330,N,Y,37.7785851,-122.4338306
MLS Listing,,Condo/Co-op,1237 6th Ave,San Francisco,CA,94122,1000000,2,2.0,San Francisco,1236,2369,1907,7,809,315,Active,,,http://www.redfin.com/CA/San-Francisco/1237-6th-Ave-94122/home/110031135,San Francisco MLS,421585310,N,Y,37.765358,-122.46347
MLS Listing,,Single Family Residential,255 Topaz Way,San Francisco,CA,94131,2195000,4,3.5,San Francisco,2655,2112,1972,7,827,,Active,,,http://www.redfin.com/CA/San-Francisco/255-Topaz-Way-94131/home/843546,San Francisco MLS,421585056,N,Y,37.7399026,-122.4383413
MLS Listing,,Condo/Co-op,171 Stoneridge Ln #2103,San Francisco,CA,94134,699000,2,2.0,San Francisco,1042,213611,1994,7,671,437,Active,August-24-2021 02:30 PM,August-24-2021 04:00 PM,http://www.redfin.com/CA/San-Francisco/171-Stoneridge-Ln-94134/unit-2103/home/792546,San Francisco MLS,421582849,N,Y,37.71023,-122.426265
MLS Listing,,Single Family Residential,1308 Anza St,San Francisco,CA,94118,1350000,2,2.0,San Francisco,1450,1875,1909,7,931,,Active,,,http://www.redfin.com/CA/San-Francisco/1308-Anza-St-94118/home/614933,San Francisco MLS,421580218,N,Y,37.7793821,-122.4623038
MLS Listing,,Single Family Residential,2250 Jackson St,San Francisco,CA,94115,8500000,4,3.5,San Francisco,3966,3510,1881,7,2143,,Active,August-28-2021 11:00 AM,August-28-2021 01:00 PM,http://www.redfin.com/CA/San-Francisco/2250-Jackson-St-94115/unit-4/home/1594584,San Francisco MLS,421578589,N,Y,37.7930198,-122.4321816
MLS Listing,,Single Family Residential,563 6th Ave,San Francisco,CA,94118,2495000,3,3.5,San Francisco,2200,2996,1940,8,1134,,Active,,,http://www.redfin.com/CA/San-Francisco/563-6th-Ave-94118/home/616040,San Francisco MLS,421583323,N,Y,37.7779318,-122.464294
MLS Listing,,Single Family Residential,9 Vista View Ct,San Francisco,CA,94124,799000,2,2.0,San Francisco,1301,1512,1986,8,614,426,Active,August-26-2021 05:30 PM,August-26-2021 07:00 PM,http://www.redfin.com/CA/San-Francisco/9-Vistaview-Ct-94124/home/750415,San Francisco MLS,421584613,N,Y,37.7335509,-122.3951948
MLS Listing,,Single Family Residential,2150 33rd Ave,San Francisco,CA,94116,1795000,4,3.0,San Francisco,2409,2996,1936,8,745,,Active,,,http://www.redfin.com/CA/San-Francisco/2150-33rd-Ave-94116/home/651560,San Francisco MLS,421583667,N,Y,37.7470421,-122.4907466
MLS Listing,,Multi-Family (2-4 Unit),128 Parker Ave,San Francisco,CA,94118,2650000,6,5.0,San Francisco,3336,2648,1966,8,794,,Active,,,http://www.redfin.com/CA/San-Francisco/128-Parker-Ave-94118/home/591555,San Francisco MLS,421580697,N,Y,37.7834016,-122.4542506
MLS Listing,,Multi-Family (2-4 Unit),716 Ashbury St,San Francisco,CA,94117,3750000,5,3.0,San Francisco,4304,4000,1904,8,871,,Active,,,http://www.redfin.com/CA/San-Francisco/716-Ashbury-St-94117/home/1899247,San Francisco MLS,421578794,N,Y,37.7684621,-122.4463244
MLS Listing,,Multi-Family (2-4 Unit),927 - 929 Union St,San Francisco,CA,94133,2550000,4,2.0,San Francisco,2760,1920,1908,8,924,,Active,,,http://www.redfin.com/CA/San-Francisco/927-Union-St-94133/home/541450,San Francisco MLS,421580560,N,Y,37.799572,-122.4146195
MLS Listing,,Multi-Family (2-4 Unit),1215 Broadway Ave,San Francisco,CA,94109,2350000,4,2.0,San Francisco,1940,1197,1908,8,1211,,Active,,,http://www.redfin.com/CA/San-Francisco/1215-Broadway-94109/home/2030319,San Francisco MLS,421580577,N,Y,37.796237,-122.4172583
MLS Listing,,Multi-Family (2-4 Unit),877 Hayes St,San Francisco,CA,94117,2150000,0,3.0,San Francisco,3300,3092,1900,8,652,,Active,,,http://www.redfin.com/CA/San-Francisco/877-Hayes-St-94117/home/577905,San Francisco MLS,421580695,N,Y,37.7757124,-122.4307493
MLS Listing,,Multi-Family (2-4 Unit),521 Waller St,San Francisco,CA,94117,2650000,6,3.0,San Francisco,4010,2419,1900,8,661,,Active,,,http://www.redfin.com/CA/San-Francisco/521-Waller-St-94117/home/579747,San Francisco MLS,421580698,N,Y,37.7706855,-122.4322815
MLS Listing,,Condo/Co-op,2138 Scott St,San Francisco,CA,94115,1295000,2,1.0,San Francisco,1106,2883,1900,9,1171,493,Active,,,http://www.redfin.com/CA/San-Francisco/2138-Scott-St-94115/home/568747,BAREIS,421584265,N,Y,37.789881,-122.438921
MLS Listing,,Condo/Co-op,2655 Bush St #109,San Francisco,CA,94115,785000,1,1.0,San Francisco,655,33520,2016,9,1198,734,Active,,,http://www.redfin.com/CA/San-Francisco/2655-Bush-St-94115/unit-109/home/110031117,San Francisco MLS,421584464,N,Y,37.7859441,-122.4408016
MLS Listing,,Condo/Co-op,25 Sierra St Unit W102,San Francisco,CA,94107,507964,3,2.5,San Francisco,1782,48750,2006,9,285,917,Active,,,http://www.redfin.com/CA/San-Francisco/25-Sierra-St-94107/unit-W102/home/176125720,San Francisco MLS,421585276,N,Y,37.7581553,-122.3956945
MLS Listing,,Single Family Residential,284 Mallorca Way,San Francisco,CA,94123,2895000,4,3.5,San Francisco,2217,1502,1929,9,1306,,Active,,,http://www.redfin.com/CA/San-Francisco/284-Mallorca-Way-94123/home/2012557,BAREIS,421583885,N,Y,37.8036402,-122.4391376
MLS Listing,,Single Family Residential,44 Juanita Way,San Francisco,CA,94127,1275000,2,1.0,San Francisco,1125,2500,1937,9,1133,,Active,,,http://www.redfin.com/CA/San-Francisco/44-Juanita-Way-94127/home/1884432,San Francisco MLS,421584635,N,Y,37.744148,-122.4524961
MLS Listing,,Multi-Family (2-4 Unit),541 - 543 37th Ave,San Francisco,CA,94121,1595000,5,3.0,San Francisco,2800,3000,1912,9,570,,Active,,,http://www.redfin.com/CA/San-Francisco/541-37th-Ave-94121/home/1756556,San Francisco MLS,421585255,N,Y,37.7786013,-122.4978554
MLS Listing,,Condo/Co-op,4520 17th St #1,SAN FRANCISCO,CA,94114,1398000,3,2.5,SAN FRANCISCO,1675,,1990,9,835,275,Active,,,http://www.redfin.com/CA/San-Francisco/4520-17th-St-94114/unit-1/home/1147929,MLSListings,ML81858424,N,Y,37.762033,-122.445885
MLS Listing,,Single Family Residential,603 Ellsworth St,San Francisco,CA,94110,1395000,3,,San Francisco,1550,1751,1929,9,900,,Active,,,http://www.redfin.com/CA/San-Francisco/603-Ellsworth-St-94110/home/1430546,San Francisco MLS,421585241,N,Y,37.7357982,-122.4146277
MLS Listing,,Single Family Residential,4417 25th St,San Francisco,CA,94114,1895000,3,2.0,San Francisco,1443,3125,1951,9,1313,,Active,August-24-2021 12:30 PM,August-24-2021 02:00 PM,http://www.redfin.com/CA/San-Francisco/4417-25th-St-94114/home/1785288,San Francisco MLS,421585220,N,Y,37.7492886,-122.4386952
MLS Listing,,Condo/Co-op,1733 Scott St #2,San Francisco,CA,94115,1695000,2,2.5,San Francisco,1488,2207,2001,9,1139,452,Active,,,http://www.redfin.com/CA/San-Francisco/1733-Scott-St-94115/unit-2/home/849827,San Francisco MLS,421585218,N,Y,37.7861802,-122.4385625
MLS Listing,,Condo/Co-op,650 Turk St #404,San Francisco,CA,94102,448000,0,1.0,San Francisco,,15582,2008,9,,546,Active,,,http://www.redfin.com/CA/San-Francisco/650-Turk-St-94102/unit-404/home/17306120,San Francisco MLS,421584551,N,Y,37.7822183,-122.4200478
MLS Listing,,Condo/Co-op,260 King St #503,San Francisco,CA,94107,1199000,2,2.0,San Francisco,1287,213232,2004,9,932,945,Active,,,http://www.redfin.com/CA/San-Francisco/260-King-St-94107/unit-503/home/22889198,San Francisco MLS,421572692,N,Y,37.7776624,-122.3938672
MLS Listing,,Condo/Co-op,388 Fulton St #504,SAN FRANCISCO,CA,94102,620000,0,1.0,SAN FRANCISCO,326,,2016,9,1902,440,Active,,,http://www.redfin.com/CA/San-Francisco/388-Fulton-St-94102/unit-504/home/144063612,MLSListings,ML81858402,N,Y,37.7790326,-122.4231449
MLS Listing,,Condo/Co-op,2875 25th St #2,San Francisco,CA,94110,799000,1,1.0,San Francisco,785,2250,1937,9,1018,300,Active,August-24-2021 02:30 PM,August-24-2021 04:00 PM,http://www.redfin.com/CA/San-Francisco/2875-25th-St-94110/unit-2/home/40629121,San Francisco MLS,421585129,N,Y,37.7510661,-122.407725
MLS Listing,,Condo/Co-op,239 26th Ave #104,San Francisco,CA,94121,775000,2,1.0,San Francisco,,6000,1963,10,,330,Active,,,http://www.redfin.com/CA/San-Francisco/239-26th-Ave-94121/unit-104/home/21677060,San Francisco MLS,421585091,N,Y,37.7849095,-122.4863342
MLS Listing,,Condo/Co-op,58 Malta Dr,SAN FRANCISCO,CA,94131,1595000,3,2.0,SAN FRANCISCO,2053,,1976,10,777,33,Active,,,http://www.redfin.com/CA/San-Francisco/58-Malta-Dr-94131/home/1382390,MLSListings,ML81858338,N,Y,37.735612,-122.443938
MLS Listing,,Condo/Co-op,1000 North Point St #703,San Francisco,CA,94109,795000,1,1.0,San Francisco,690,26400,1963,10,1152,1033,Active,,,http://www.redfin.com/CA/San-Francisco/1000-N-Point-St-94109/unit-703/home/12395410,San Francisco MLS,421584969,N,Y,37.8055156,-122.4240961
MLS Listing,,Condo/Co-op,400 Beale St #1211,San Francisco,CA,94105,995000,2,2.0,San Francisco,990,27581,2001,10,1005,937,Active,,,http://www.redfin.com/CA/San-Francisco/400-Beale-St-94105/unit-1211/home/12399584,San Francisco MLS,421583293,N,Y,37.7870715,-122.3909973
MLS Listing,,Vacant Land,1782 Quesada Ave,San Francisco,CA,94124,649000,0,,San Francisco,,2500,,10,,,Active,,,http://www.redfin.com/CA/San-Francisco/1782-Quesada-Ave-94124/unit-V/home/110063403,San Francisco MLS,421584940,N,Y,37.734423,-122.392823
MLS Listing,,Single Family Residential,125 Colon Ave,San Francisco,CA,94112,998000,3,1.0,San Francisco,1284,3497,1921,10,777,,Active,,,http://www.redfin.com/CA/San-Francisco/125-Colon-Ave-94112/home/1965408,San Francisco MLS,421584405,N,Y,37.7291639,-122.4558133
MLS Listing,,Single Family Residential,168 Sylvan Dr,SAN FRANCISCO,CA,94132,1228000,2,1.0,SAN FRANCISCO,1147,3300,1950,10,1071,,Active,,,http://www.redfin.com/CA/San-Francisco/168-Sylvan-Dr-94132/home/1432031,MLSListings,ML81858275,N,Y,37.7312804,-122.4850891
MLS Listing,,Multi-Family (2-4 Unit),150 Shrader St,San Francisco,CA,94117,2650000,6,1.0,San Francisco,4053,3297,1910,10,654,,Active,,,http://www.redfin.com/CA/San-Francisco/150-Shrader-St-94117/home/594495,San Francisco MLS,421584869,N,Y,37.7734343,-122.4523761
MLS Listing,,Condo/Co-op,140 South Van Ness Ave #1045,San Francisco,CA,94103,725000,1,1.5,San Francisco,830,43147,2002,10,873,560,Active,,,http://www.redfin.com/CA/San-Francisco/140-S-Van-Ness-Ave-94103/unit-1045/home/1321409,San Francisco MLS,421584868,N,Y,37.7716556,-122.418809
MLS Listing,,Condo/Co-op,690 Market St #1902,San Francisco,CA,94104,1295000,2,2.5,San Francisco,1192,11357,2007,10,1086,2953,Active,,,http://www.redfin.com/CA/San-Francisco/690-Market-St-94104/unit-1902/home/21967218,San Francisco MLS,421579746,N,Y,37.7883046,-122.4032778
MLS Listing,,Condo/Co-op,260 King St #1105,San Francisco,CA,94107,1488000,2,2.0,San Francisco,1488,,2004,10,1000,1024,Active,,,http://www.redfin.com/CA/San-Francisco/260-King-St-94107/unit-1105/home/22889368,San Francisco MLS,421572943,N,Y,37.7776624,-122.3938672
MLS Listing,,Condo/Co-op,655 4th Ave,San Francisco,CA,94118,1400000,2,1.0,San Francisco,1314,2997,1907,10,1065,150,Active,,,http://www.redfin.com/CA/San-Francisco/655-4th-Ave-94118/home/851688,San Francisco MLS,421578980,N,Y,37.776281,-122.462121
MLS Listing,,Single Family Residential,222 Andover St,San Francisco,CA,94110,1795000,3,3.0,San Francisco,1636,1750,1924,10,1097,,Active,,,http://www.redfin.com/CA/San-Francisco/222-Andover-St-94110/home/1912104,San Francisco MLS,421583960,N,Y,37.7400796,-122.4166078
MLS Listing,,Condo/Co-op,140 South Van Ness Ave #807,San Francisco,CA,94103,724995,1,1.5,San Francisco,830,43147,2002,10,873,560,Active,,,http://www.redfin.com/CA/San-Francisco/140-S-Van-Ness-Ave-94103/unit-807/home/864960,San Francisco MLS,421584550,N,Y,37.7716556,-122.418809
MLS Listing,,Single Family Residential,187 Putnam St,San Francisco,CA,94110,1395000,3,2.0,San Francisco,1381,1751,1959,10,1010,,Active,,,http://www.redfin.com/CA/San-Francisco/187-Putnam-St-94110/home/761107,San Francisco MLS,421584558,N,Y,37.7371008,-122.4108978
MLS Listing,,Condo/Co-op,268 Day St #4,San Francisco,CA,94131,1145000,2,1.0,San Francisco,932,2870,1967,10,1229,410,Active,,,http://www.redfin.com/CA/San-Francisco/268-Day-St-94131/unit-4/home/12352908,San Francisco MLS,421584752,N,Y,37.7430361,-122.4280368
MLS Listing,,Condo/Co-op,2875 Jackson St #3,San Francisco,CA,94115,1340000,2,1.0,San Francisco,1122,3784,1923,10,1194,936,Active,,,http://www.redfin.com/CA/San-Francisco/2875-Jackson-St-94115/unit-3/home/1979428,San Francisco MLS,421584187,N,Y,37.7912109,-122.442323
MLS Listing,,Condo/Co-op,3637 26th St,San Francisco,CA,94110,1298000,2,1.0,San Francisco,1380,2500,1926,10,941,250,Active,August-24-2021 02:30 PM,August-24-2021 04:00 PM,http://www.redfin.com/CA/San-Francisco/3637-26th-St-94110/home/1233090,San Francisco MLS,421546182,N,Y,37.7486355,-122.4219738
MLS Listing,,Single Family Residential,2 Gaviota Way,San Francisco,CA,94127,1798000,5,3.0,San Francisco,2614,2996,1941,10,688,,Active,,,http://www.redfin.com/CA/San-Francisco/2-Gaviota-Way-94127/home/1726036,San Francisco MLS,421584456,N,Y,37.7398422,-122.4481282
MLS Listing,,Condo/Co-op,131 Collingwood St,San Francisco,CA,94114,1195000,3,1.5,San Francisco,1093,3023,1900,10,1093,323,Active,,,http://www.redfin.com/CA/San-Francisco/131-Collingwood-St-94114/home/28935747,San Francisco MLS,421570226,N,Y,37.7603193,-122.4357859
MLS Listing,,Condo/Co-op,813 Lyon St #2,San Francisco,CA,94115,1695000,3,2.5,San Francisco,1680,,2021,10,1009,,Active,August-24-2021 11:30 AM,August-24-2021 01:00 PM,http://www.redfin.com/CA/San-Francisco/813-Lyon-St-94115/unit-2/home/176113304,San Francisco MLS,421584454,N,Y,37.7786056,-122.4438265
MLS Listing,,Condo/Co-op,1290 Rhode Island St #23,San Francisco,CA,94107,775000,2,1.0,San Francisco,831,80224,1989,10,933,589,Active,,,http://www.redfin.com/CA/San-Francisco/1290-Rhode-Island-St-94107/unit-23/home/1422646,San Francisco MLS,421584022,N,Y,37.7534622,-122.401699
MLS Listing,,Townhouse,1360 Stevenson St,San Francisco,CA,94103,1699000,3,3.0,San Francisco,2493,3541,2008,10,682,402,Active,,,http://www.redfin.com/CA/San-Francisco/1360-Stevenson-St-94103/home/17487845,San Francisco MLS,421578748,N,Y,37.770634,-122.421829
MLS Listing,,Single Family Residential,1051 Prague St,SAN FRANCISCO,CA,94112,998888,3,1.0,SAN FRANCISCO,1749,4713,1954,10,571,,Active,,,http://www.redfin.com/CA/San-Francisco/1051-Prague-St-94112/home/1371916,MLSListings,ML81858189,N,Y,37.7099618,-122.437722
MLS Listing,,Condo/Co-op,555 4th St #433,San Francisco,CA,94107,748000,1,1.0,San Francisco,691,63237,2006,10,1082,619,Active,,,http://www.redfin.com/CA/San-Francisco/555-4th-St-94107/unit-433/home/22887290,San Francisco MLS,421583980,N,Y,37.7793967,-122.3967727
MLS Listing,,Multi-Family (2-4 Unit),927 - 929 Capp St,San Francisco,CA,94110,1395000,2,2.0,San Francisco,1490,2875,1904,11,936,,Active,,,http://www.redfin.com/CA/San-Francisco/927-Capp-St-94110/home/1918283,San Francisco MLS,421584713,N,Y,37.7518066,-122.4169988
MLS Listing,,Condo/Co-op,3470 17th St,San Francisco,CA,94110,2500000,3,3.0,San Francisco,2497,3450,1908,11,1001,482,Active,,,http://www.redfin.com/CA/San-Francisco/3470-17th-St-94110/home/919446,San Francisco MLS,421579141,N,Y,37.7634479,-122.423293
MLS Listing,,Condo/Co-op,114 Coral Ct #26,San Francisco,CA,94124,699000,3,3.0,San Francisco,1360,,1981,11,514,428,Active,,,http://www.redfin.com/CA/San-Francisco/114-Coral-Ct-94124/unit-26/home/1890359,San Francisco MLS,421584695,N,Y,37.7279658,-122.3718325
MLS Listing,,Condo/Co-op,112 Arguello Blvd #5,San Francisco,CA,94118,1195000,2,1.0,San Francisco,,2674,1926,11,,379,Active,,,http://www.redfin.com/CA/San-Francisco/112-Arguello-Blvd-94118/unit-5/home/12353732,San Francisco MLS,421584455,N,Y,37.7881863,-122.4589978
MLS Listing,,Single Family Residential,411 Hazelwood Ave,San Francisco,CA,94127,1795000,3,2.0,San Francisco,2748,2883,1929,11,653,,Active,August-24-2021 01:30 PM,August-24-2021 03:00 PM,http://www.redfin.com/CA/San-Francisco/411-Hazelwood-Ave-94127/home/1093346,San Francisco MLS,421581041,N,Y,37.7343918,-122.457096
MLS Listing,,Single Family Residential,449 Pennsylvania Ave,SAN FRANCISCO,CA,94107,1348000,2,2.0,SAN FRANCISCO,1653,2495,1930,11,815,,Active,,,http://www.redfin.com/CA/San-Francisco/449-Pennsylvania-Ave-94107/home/1971201,MLSListings,ML81858172,N,Y,37.7608134,-122.3932101
MLS Listing,,Single Family Residential,385 Niagara Ave,San Francisco,CA,94112,1350000,4,2.0,San Francisco,2044,2199,,11,660,,Active,,,http://www.redfin.com/CA/San-Francisco/385-Niagara-Ave-94112/home/1945466,San Francisco MLS,421584202,N,Y,37.7191523,-122.447321
MLS Listing,,Single Family Residential,49 Samoset St,San Francisco,CA,94110,1495000,3,2.0,San Francisco,1571,2321,1956,11,952,,Active,August-24-2021 03:00 PM,August-24-2021 04:30 PM,http://www.redfin.com/CA/San-Francisco/49-Samoset-St-94110/home/1720231,San Francisco MLS,421584208,N,Y,37.7444768,-122.4085658
MLS Listing,,Condo/Co-op,470 Kansas St,San Francisco,CA,94107-2313,1099999,2,1.0,San Francisco,929,,1885,11,1184,270,Active,,,http://www.redfin.com/CA/San-Francisco/470-Kansas-St-94107/home/2035252,"bridgeMLS, Bay East AOR, or Contra Costa AOR",40961881,N,Y,37.763914,-122.403766
MLS Listing,,Single Family Residential,51 Encanto Ave,San Francisco,CA,94115,1799000,3,3.0,San Francisco,2000,4403,1948,11,900,,Active,,,http://www.redfin.com/CA/San-Francisco/51-Encanto-Ave-94115/home/882281,San Francisco MLS,421568968,N,Y,37.7805172,-122.4437823
MLS Listing,,Condo/Co-op,2666 Pine St #1,San Francisco,CA,94115,799000,2,1.0,San Francisco,818,5156,1900,11,977,400,Active,,,http://www.redfin.com/CA/San-Francisco/2666-Pine-St-94115/unit-1/home/1070472,San Francisco MLS,421581817,N,Y,37.787462,-122.439757
MLS Listing,,Condo/Co-op,555 Fulton St #516,San Francisco,CA,94102,1249000,2,2.0,San Francisco,825,,,11,1514,755,Active,,,http://www.redfin.com/CA/San-Francisco/555-Fulton-St-94102/unit-516/home/173331378,San Francisco MLS,421583934,N,Y,37.7781581,-122.4261091
MLS Listing,,Condo/Co-op,555 Fulton St #505,San Francisco,CA,94102,799000,1,1.0,San Francisco,506,,,11,1579,600,Active,,,http://www.redfin.com/CA/San-Francisco/555-Fulton-St-94102/unit-505/home/173331368,San Francisco MLS,421583933,N,Y,37.7781581,-122.4261091
MLS Listing,,Condo/Co-op,2448 Lombard St #313,San Francisco,CA,94123,898000,0,1.0,San Francisco,575,,2020,11,1562,,Active,,,http://www.redfin.com/CA/San-Francisco/2448-Lombard-St-94123/unit-313/home/176103924,San Francisco MLS,421582560,N,Y,37.7993803,-122.4419375
MLS Listing,,Condo/Co-op,2190 Pacific Ave #2190,San Francisco,CA,94115,1400000,1,1.0,San Francisco,1095,2581,1950,11,1279,417,Active,,,http://www.redfin.com/CA/San-Francisco/2190-Pacific-Ave-94115/unit-2190/home/1763886,San Francisco MLS,421581737,N,Y,37.7939429,-122.4311982
MLS Listing,,Single Family Residential,1379 Thomas Ave,San Francisco,CA,94124,795000,3,2.0,San Francisco,1404,3750,1941,11,566,,Active,,,http://www.redfin.com/CA/San-Francisco/1379-Thomas-Ave-94124/home/739460,San Francisco MLS,421584023,N,Y,37.7279119,-122.3873353
MLS Listing,,Single Family Residential,361 Hamilton St,San Francisco,CA,94134,1699000,3,2.0,San Francisco,1775,3000,1953,11,957,,Active,,,http://www.redfin.com/CA/San-Francisco/361-Hamilton-St-94134/home/1294087,San Francisco MLS,421576587,N,Y,37.7265656,-122.4095503
MLS Listing,,Condo/Co-op,255 Berry #308,SAN FRANCISCO,CA,94158,1199800,2,1.0,SAN FRANCISCO,1045,,2004,11,1148,799,Active,,,http://www.redfin.com/CA/San-Francisco/255-Berry-St-94158/unit-308/home/1058424,MLSListings,ML81858073,N,Y,37.7743869,-122.3947812
MLS Listing,,Condo/Co-op,1523 Franklin St Unit C,San Francisco,CA,94109,3388000,3,3.0,San Francisco,,,2021,11,,1153,Active,,,http://www.redfin.com/CA/San-Francisco/1523-Franklin-St-94109/unit-C/home/176103529,San Francisco MLS,421584315,N,Y,37.7886202,-122.4239241
MLS Listing,,Condo/Co-op,1720 Dolores St,San Francisco,CA,94110,998000,1,1.0,San Francisco,955,1197,1933,11,1045,170,Active,August-24-2021 12:30 PM,August-24-2021 02:00 PM,http://www.redfin.com/CA/San-Francisco/1720-Dolores-St-94110/home/28939233,San Francisco MLS,421582931,N,Y,37.7418064,-122.4243961
MLS Listing,,Single Family Residential,4524 Cabrillo St,San Francisco,CA,94121,1745000,5,3.0,San Francisco,2030,2696,1936,11,860,,Active,,,http://www.redfin.com/CA/San-Francisco/4524-Cabrillo-St-94121/home/622782,San Francisco MLS,421584068,N,Y,37.773618,-122.507322
MLS Listing,,Single Family Residential,15 Buena Vista Ter,San Francisco,CA,94117,12750000,5,4.5,San Francisco,7138,5000,1917,11,1786,,Active,,,http://www.redfin.com/CA/San-Francisco/15-Buena-Vista-Ter-94117/home/12277172,BAREIS,421574504,N,Y,37.7687866,-122.4381201
MLS Listing,,Condo/Co-op,41 - A Landers St,San Francisco,CA,94114,795000,1,1.0,San Francisco,620,3125,,11,1282,313,Active,August-24-2021 12:30 PM,August-24-2021 02:00 PM,http://www.redfin.com/CA/San-Francisco/41-Landers-St-94114/home/704017,San Francisco MLS,421584297,N,Y,37.767121,-122.42748
MLS Listing,,Single Family Residential,3021 Market St,San Francisco,CA,94114,995000,2,2.0,San Francisco,1301,1559,1900,11,765,,Active,,,http://www.redfin.com/CA/San-Francisco/3021-Market-St-94114/home/1725702,San Francisco MLS,421583613,N,Y,37.7608875,-122.4415262
MLS Listing,,Multi-Family (5+ Unit),1521 Taylor St,San Francisco,CA,94133,4000000,0,,San Francisco,7020,2739,1968,11,570,,Active,,,http://www.redfin.com/CA/San-Francisco/1521-Taylor-St-94133/home/545862,San Francisco MLS,421584103,N,Y,37.7963927,-122.4136544
MLS Listing,,Condo/Co-op,280 Spear St Unit 34A,San Francisco,CA,94105,2825000,2,2.0,San Francisco,1735,47916,,11,1628,1351,Active,,,http://www.redfin.com/CA/San-Francisco/280-Spear-St-94105/unit-34A/home/170002542,San Francisco MLS,421584267,N,Y,37.7903739,-122.3913812
MLS Listing,,Multi-Family (5+ Unit),1565 Washington St,San Francisco,CA,94109,5900000,0,,San Francisco,9861,4403,1909,11,598,,Active,,,http://www.redfin.com/CA/San-Francisco/1565-Washington-St-94109/home/547056,San Francisco MLS,421584101,N,Y,37.793387,-122.4190081
MLS Listing,,Condo/Co-op,1331 Stevenson St,San Francisco,CA,94103,650000,1,1.0,San Francisco,600,,1907,11,1083,266,Active,,,http://www.redfin.com/CA/San-Francisco/1331-Stevenson-St-94103/home/1486927,San Francisco MLS,421584257,N,Y,37.7710718,-122.4214979
MLS Listing,,Single Family Residential,2326 45th Ave,San Francisco,CA,94116,1088000,3,2.0,San Francisco,1182,3000,1940,11,920,,Active,August-27-2021 04:00 PM,August-27-2021 06:00 PM,http://www.redfin.com/CA/San-Francisco/2326-45th-Ave-94116/home/2016398,San Francisco MLS,421583456,N,Y,37.7431377,-122.5034312
MLS Listing,,Condo/Co-op,353 Arlington St,San Francisco,CA,94131,1198000,2,1.0,San Francisco,1263,1850,1989,11,949,,Active,,,http://www.redfin.com/CA/San-Francisco/353-Arlington-St-94131/home/1114904,San Francisco MLS,421580258,N,Y,37.7361941,-122.4278087
MLS Listing,,Condo/Co-op,3736 Cesar Chavez St,San Francisco,CA,94114,2595000,4,4.0,San Francisco,2690,3470,1900,11,965,248,Active,,,http://www.redfin.com/CA/San-Francisco/3736-Cesar-Chavez-94110/home/110051936,San Francisco MLS,421571632,N,Y,37.7481211,-122.4233329
MLS Listing,,Single Family Residential,52-54 Alvarado St,San Francisco,CA,94110,2000000,4,3.0,Mission District,2660,2848,1906,12,752,,Active,,,http://www.redfin.com/CA/San-Francisco/52-Alvarado-St-94110/home/1292387,"bridgeMLS, Bay East AOR, or Contra Costa AOR",40962798,N,Y,37.7546614,-122.4223395
MLS Listing,,Single Family Residential,2242 17th Ave,San Francisco,CA,94116,1495000,3,3.0,San Francisco,2040,2996,,12,733,,Active,,,http://www.redfin.com/CA/San-Francisco/2242-17th-Ave-94116/home/1404064,San Francisco MLS,421583196,N,Y,37.746069,-122.4734594
MLS Listing,,Multi-Family (2-4 Unit),327 24th Ave,San Francisco,CA,94121,2250000,7,2.0,San Francisco,3700,3000,1986,12,608,,Active,,,http://www.redfin.com/CA/San-Francisco/327-24th-Ave-94121/home/1627832,San Francisco MLS,421584046,N,Y,37.7832306,-122.4841052
MLS Listing,,Condo/Co-op,601 Van Ness Ave #649,San Francisco,CA,94102,670000,1,1.0,San Francisco,720,105806,1982,12,931,940,Active,,,http://www.redfin.com/CA/San-Francisco/601-Van-Ness-Ave-94102/unit-649/home/575543,San Francisco MLS,421584006,N,Y,37.7813653,-122.4215253
MLS Listing,,Single Family Residential,490 Faxon Ave,San Francisco,CA,94112,895000,2,1.0,San Francisco,1013,1385,1941,12,884,,Active,,,http://www.redfin.com/CA/San-Francisco/490-Faxon-Ave-94112/home/813678,San Francisco MLS,421583954,N,Y,37.7235058,-122.4600703
MLS Listing,,Condo/Co-op,601 Van Ness Ave #151,San Francisco,CA,94102,999000,2,3.0,San Francisco,1737,105806,1982,12,575,1030,Active,,,http://www.redfin.com/CA/San-Francisco/601-Van-Ness-Ave-94102/unit-151/home/1460043,San Francisco MLS,421583966,N,Y,37.7813653,-122.4215253
MLS Listing,,Single Family Residential,19 Delmar St,San Francisco,CA,94117,2995000,4,2.5,San Francisco,2463,2000,1890,12,1216,,Active,,,http://www.redfin.com/CA/San-Francisco/19-Delmar-St-94117/home/1492437,San Francisco MLS,421583285,N,Y,37.7687456,-122.445994
MLS Listing,,Single Family Residential,122 19Th Ave,San Francisco,CA,94121,3380000,4,5.0,Lake District,3015,3000,1984,12,1121,,Active,,,http://www.redfin.com/CA/San-Francisco/122-19th-Ave-94121/home/176078433,"bridgeMLS, Bay East AOR, or Contra Costa AOR",40962157,N,Y,37.785539,-122.4784835
MLS Listing,,Condo/Co-op,120 19Th Ave,San Francisco,CA,94121,1880000,3,2.5,Lake Merced,1539,3000,1984,12,1222,,Active,,,http://www.redfin.com/CA/San-Francisco/120-19th-Ave-94121/home/604939,"bridgeMLS, Bay East AOR, or Contra Costa AOR",40962149,N,Y,37.7855663,-122.4783512
MLS Listing,,Multi-Family (5+ Unit),1588 - 1592 Union St,San Francisco,CA,94123,2250000,3,3.0,San Francisco,4669,2925,1902,12,482,,Active,,,http://www.redfin.com/CA/San-Francisco/1588-Union-St-94123/home/110053965,San Francisco MLS,421583927,N,Y,37.7986269,-122.4254325
MLS Listing,,Single Family Residential,85 Melba Ave,San Francisco,CA,94132,1890000,4,3.0,San Francisco,2700,3998,1936,12,700,,Active,,,http://www.redfin.com/CA/San-Francisco/85-Melba-Ave-94132/home/1664479,San Francisco MLS,421583272,N,Y,37.7313745,-122.4785005
MLS Listing,,Multi-Family (2-4 Unit),4315 - 4317 Lincoln Way,San Francisco,CA,94122,1850000,3,3.5,San Francisco,2311,2495,1933,12,801,,Active,,,http://www.redfin.com/CA/San-Francisco/4315-Lincoln-Way-94122/home/1061515,San Francisco MLS,421579220,N,Y,37.7639827,-122.5043935
MLS Listing,,Single Family Residential,686 Colby St,San Francisco,CA,94134,999000,3,2.0,Portola,,1750,1951,12,,,Active,,,http://www.redfin.com/CA/San-Francisco/686-Colby-St-94134/home/779890,"bridgeMLS, Bay East AOR, or Contra Costa AOR",40959777,N,Y,37.7218708,-122.4112207
MLS Listing,,Condo/Co-op,4231 24th St,San Francisco,CA,94114,2895000,4,4.5,San Francisco,2580,3036,1929,12,1122,,Active,,,http://www.redfin.com/CA/San-Francisco/4231-24th-St-94114/home/2025252,San Francisco MLS,421583669,N,Y,37.7508695,-122.4370713
MLS Listing,,Single Family Residential,224 Laidley St,San Francisco,CA,94131,5795000,4,4.0,San Francisco,,1999,,12,,,Active,,,http://www.redfin.com/CA/San-Francisco/224-Laidley-St-94131/home/1736339,San Francisco MLS,421583544,N,Y,37.7383322,-122.4282217
MLS Listing,,Single Family Residential,105 Vienna St,San Francisco,CA,94112,699000,2,,San Francisco,924,1875,1901,12,756,,Active,,,http://www.redfin.com/CA/San-Francisco/105-Vienna-St-94112/home/1663518,San Francisco MLS,421583798,N,Y,37.7264277,-122.4256335
MLS Listing,,Condo/Co-op,28 Woodland Ave,San Francisco,CA,94117,1499000,2,2.0,San Francisco,1828,2525,1907,12,820,,Active,August-24-2021 12:30 PM,August-24-2021 02:00 PM,http://www.redfin.com/CA/San-Francisco/28-Woodland-Ave-94117/home/1589950,San Francisco MLS,421574935,N,Y,37.7637541,-122.453106
MLS Listing,,Condo/Co-op,28 - A Woodland Ave,San Francisco,CA,94117,1499000,2,1.0,San Francisco,1355,2525,1907,12,1106,,Active,August-24-2021 12:30 PM,August-24-2021 02:00 PM,http://www.redfin.com/CA/San-Francisco/28A-Woodland-Ave-94117/home/176074767,San Francisco MLS,421574924,N,Y,37.763754,-122.453106
MLS Listing,,Single Family Residential,732 16th Ave,San Francisco,CA,94118,1498000,7,6.0,San Francisco,,3188,,13,,,Active,,,http://www.redfin.com/CA/San-Francisco/732-16th-Ave-94118/home/2026951,San Francisco MLS,421583698,N,Y,37.7742035,-122.4744322
MLS Listing,,Multi-Family (2-4 Unit),260 - 262 25th Ave,San Francisco,CA,94121,1990000,6,4.5,San Francisco,1604,3000,1924,13,1241,,Active,,,http://www.redfin.com/CA/San-Francisco/260-25th-Ave-94121/home/176070812,San Francisco MLS,421583650,N,Y,37.7845823,-122.4847716
MLS Listing,,Multi-Family (5+ Unit),435 - 441 Powell St,San Francisco,CA,94102,20000000,1,,San Francisco,26152,3994,1907,13,765,,Active,,,http://www.redfin.com/CA/San-Francisco/435-Powell-St-94102/home/1824714,San Francisco MLS,421583603,N,Y,37.7887609,-122.4088026
MLS Listing,,Single Family Residential,148 Foerster St,San Francisco,CA,94112,1299999,3,2.0,San Francisco,1200,2495,1929,13,1083,,Active,,,http://www.redfin.com/CA/San-Francisco/148-Foerster-St-94112/home/1139338,San Francisco MLS,421583582,N,Y,37.7297641,-122.4486424
MLS Listing,,Condo/Co-op,1731 Powell St #304,San Francisco,CA,94133,2300000,2,2.5,San Francisco,1426,,2018,13,1613,899,Active,,,http://www.redfin.com/CA/San-Francisco/1731-Powell-St-94133/unit-304/home/169565009,San Francisco MLS,421573296,N,Y,37.8006922,-122.4112871
MLS Listing,,Condo/Co-op,1731 Powell St #302,San Francisco,CA,94133,1250000,1,1.0,San Francisco,911,,2018,13,1372,784,Active,,,http://www.redfin.com/CA/San-Francisco/1731-Powell-St-94133/unit-302/home/148024896,San Francisco MLS,421573035,N,Y,37.8006922,-122.4112871
MLS Listing,,Condo/Co-op,868 Shrader St,San Francisco,CA,94117,1795000,3,1.0,San Francisco,1950,3020,1906,13,921,,Active,,,http://www.redfin.com/CA/San-Francisco/868-Shrader-St-94117/home/176068674,San Francisco MLS,421583545,N,Y,37.7667393,-122.4511585
MLS Listing,,Condo/Co-op,1731 Powell St #405,San Francisco,CA,94133,1450000,2,2.5,San Francisco,1245,,2018,13,1165,836,Active,,,http://www.redfin.com/CA/San-Francisco/1731-Powell-St-94133/unit-405/home/160713527,San Francisco MLS,421573047,N,Y,37.8006922,-122.4112871
MLS Listing,,Single Family Residential,50 Neptune St,San Francisco,CA,94124,1028000,2,1.0,San Francisco,1250,2495,1907,14,822,,Active,,,http://www.redfin.com/CA/San-Francisco/50-Neptune-St-94124/home/753671,San Francisco MLS,421583397,N,Y,37.7306358,-122.3972706
MLS Listing,,Single Family Residential,112 Putnam St,San Francisco,CA,94110,1549000,5,4.0,Bernal Heights,2508,1750,1923,14,618,,Active,,,http://www.redfin.com/CA/San-Francisco/112-Putnam-St-94110/home/1036232,"bridgeMLS, Bay East AOR, or Contra Costa AOR",40962479,N,Y,37.7379525,-122.4111322
MLS Listing,,Multi-Family (2-4 Unit),2020 - 2022 Laguna St,San Francisco,CA,94115,3120000,2,2.0,San Francisco,3120,2682,1941,14,1000,,Active,,,http://www.redfin.com/CA/San-Francisco/2020-Laguna-St-94115/home/1554745,San Francisco MLS,421581582,N,Y,37.7899398,-122.428686
MLS Listing,,Multi-Family (2-4 Unit),48 - 50 Winfield St,San Francisco,CA,94110,1750000,4,2.0,San Francisco,2280,1751,1961,14,768,,Active,,,http://www.redfin.com/CA/San-Francisco/48-Winfield-St-94110/home/1103896,San Francisco MLS,421582167,N,Y,37.7444761,-122.4175259
MLS Listing,,Vacant Land,285 Edgehill Way,SAN FRANCISCO,CA,94127,485000,,,SAN FRANCISCO,,6272,,14,,,Active,,,http://www.redfin.com/CA/San-Francisco/285-Edgehill-Way-94127/unit-V/home/110057092,MLSListings,ML81857578,N,Y,37.742658,-122.458448
MLS Listing,,Multi-Family (5+ Unit),2906 Van Ness Ave,San Francisco,CA,94109,1950000,0,,San Francisco,3328,2889,1907,14,586,,Active,,,http://www.redfin.com/CA/San-Francisco/2906-Van-Ness-Ave-94109/home/1893456,San Francisco MLS,421583348,N,Y,37.80254,-122.4244531
MLS Listing,,Condo/Co-op,862 Shrader St,San Francisco,CA,94117,1950000,3,2.0,San Francisco,2015,3020,1906,14,968,,Active,,,http://www.redfin.com/CA/San-Francisco/862-Shrader-St-94117/home/1920854,San Francisco MLS,421583313,N,Y,37.7667593,-122.4510489
MLS Listing,,Single Family Residential,1374 Gilman Ave,San Francisco,CA,94124,1195000,4,2.0,San Francisco,1923,2500,1950,14,621,,Active,,,http://www.redfin.com/CA/San-Francisco/1374-Gilman-Ave-94124/home/2011462,San Francisco MLS,421579858,N,Y,37.7223546,-122.3950101
MLS Listing,,Condo/Co-op,488 Folsom #4205,San Francisco,CA,94105,3135000,2,2.5,San Francisco,1652,,2019,14,1898,1771,Active,,,http://www.redfin.com/CA/San-Francisco/488-Folsom-St-94105/unit-4205/home/169571693,San Francisco MLS,421583266,N,Y,37.7878074,-122.3943328
MLS Listing,,Condo/Co-op,960 Market St #304,San Francisco,CA,94102,520000,0,1.0,San Francisco,344,,,14,1512,598,Active,,,http://www.redfin.com/CA/San-Francisco/960-Market-St-94102/unit-304/home/176059895,San Francisco MLS,421583259,N,Y,37.7831239,-122.4095552
MLS Listing,,Condo/Co-op,2016 Pacific Ave #204,San Francisco,CA,94109,1675000,2,2.5,San Francisco,,8779,1989,14,,606,Active,August-26-2021 05:00 PM,August-26-2021 06:00 PM,http://www.redfin.com/CA/San-Francisco/2016-Pacific-Ave-94109/unit-204/home/1846211,San Francisco MLS,421580236,N,Y,37.7943768,-122.4289066
MLS Listing,,Condo/Co-op,2000 Ellis St #101,San Francisco,CA,94115,875000,1,1.0,San Francisco,761,8090,2013,14,1150,509,Active,,,http://www.redfin.com/CA/San-Francisco/2000-Ellis-St-94115/unit-101/home/55244539,BAREIS,421579267,N,Y,37.781718,-122.439434
MLS Listing,,Condo/Co-op,420 Stanyan St #7,SAN FRANCISCO,CA,94117,1558000,3,2.0,SAN FRANCISCO,1441,,2003,14,1081,810,Active,,,http://www.redfin.com/CA/San-Francisco/420-Stanyan-St-94117/unit-7/home/871389,MLSListings,ML81857502,N,Y,37.7744337,-122.4542758
MLS Listing,,Single Family Residential,518 Oak St,San Francisco,CA,94102,1995000,3,2.0,San Francisco,1519,1994,1900,14,1313,,Active,,,http://www.redfin.com/CA/San-Francisco/518-Oak-St-94102/home/1475708,San Francisco MLS,421543907,N,Y,37.7744945,-122.4285203
MLS Listing,,Multi-Family (5+ Unit),2847 Fillmore St,San Francisco,CA,94123,3210000,0,,San Francisco,4835,2495,1900,14,664,,Active,,,http://www.redfin.com/CA/San-Francisco/2847-Fillmore-St-94123/home/1145163,San Francisco MLS,421582612,N,Y,37.7958606,-122.4356428
MLS Listing,,Multi-Family (5+ Unit),5431 California St,San Francisco,CA,94118,4550000,0,,San Francisco,9225,3843,1925,14,493,,Active,,,http://www.redfin.com/CA/San-Francisco/5431-California-St-94118/home/608750,San Francisco MLS,421582532,N,Y,37.7840839,-122.4759358
MLS Listing,,Single Family Residential,865 Duncan St,San Francisco,CA,94131,8000000,7,6.5,San Francisco,5884,5805,1945,14,1360,,Active,,,http://www.redfin.com/CA/San-Francisco/865-Duncan-St-94131/home/1744791,San Francisco MLS,421583152,N,Y,37.745159,-122.4393526
MLS Listing,,Single Family Residential,62 Natick St,San Francisco,CA,94131,1895000,4,2.0,San Francisco,,1750,1906,14,,,Active,,,http://www.redfin.com/CA/San-Francisco/62-Natick-St-94131/home/810520,San Francisco MLS,421582194,N,Y,37.7340989,-122.4319608
MLS Listing,,Condo/Co-op,1101 Green St #701,San Francisco,CA,94109,1200000,1,1.0,San Francisco,919,5279,1928,14,1306,1572,Active,,,http://www.redfin.com/CA/San-Francisco/1101-Green-St-94109/unit-701/home/1295491,San Francisco MLS,421582941,N,Y,37.7982681,-122.4174152
MLS Listing,,Condo/Co-op,1160 Mission St #1106,San Francisco,CA,94103,1295000,2,2.0,San Francisco,1146,,2008,15,1130,961,Active,,,http://www.redfin.com/CA/San-Francisco/1160-Mission-St-94103/unit-1106/home/17305366,San Francisco MLS,421583129,N,Y,37.7786972,-122.4126145
MLS Listing,,Condo/Co-op,719 Larkin St #203,SAN FRANCISCO,CA,94109,685000,1,1.0,SAN FRANCISCO,619,,2019,16,1107,534,Active,,,http://www.redfin.com/CA/San-Francisco/719-Larkin-St-94109/unit-203/home/172245851,MLSListings,ML81857386,N,Y,37.7845263,-122.4180884
MLS Listing,,Condo/Co-op,333 1st St #205,San Francisco,CA,94105,1095000,1,1.0,San Francisco,778,,2004,16,1407,854,Active,,,http://www.redfin.com/CA/San-Francisco/333-1st-St-94105/unit-205/home/25723435,San Francisco MLS,421575666,N,Y,37.7872383,-122.3940289
MLS Listing,,Condo/Co-op,45 Bartlett St #502,San Francisco,CA,94110,975000,2,1.0,San Francisco,817,,2014,16,1193,690,Active,,,http://www.redfin.com/CA/San-Francisco/45-Bartlett-St-94110/unit-502/home/109315249,San Francisco MLS,421582950,N,Y,37.7558162,-122.4197494
MLS Listing,,Condo/Co-op,401 Harrison St Unit 13B,San Francisco,CA,94105,1650000,2,2.0,San Francisco,1312,,2014,16,1258,1368,Active,,,http://www.redfin.com/CA/San-Francisco/401-Harrison-St-94105/unit-13B/home/144017354,San Francisco MLS,421582951,N,Y,37.7864989,-122.3921487
MLS Listing,,Single Family Residential,280 Williams Ave Unit vesta,San Francisco,CA,94124,988000,3,3.0,San Francisco,1500,2500,1988,16,659,,Active,,,http://www.redfin.com/CA/San-Francisco/280-Williams-Ave-94124/unit-vesta/home/176037880,San Francisco MLS,421582952,N,Y,37.730317,-122.3985207
MLS Listing,,Condo/Co-op,765 Market St Unit 22C,San Francisco,CA,94103,1175000,1,1.0,Soma,792,,2001,16,1484,2148,Active,,,http://www.redfin.com/CA/San-Francisco/765-Market-St-94103/unit-22C/home/1482232,"bridgeMLS, Bay East AOR, or Contra Costa AOR",40962306,N,Y,37.786097,-122.4041629
MLS Listing,,Single Family Residential,300 Baltimore Way,San Francisco,CA,94112,1249000,5,2.0,San Francisco,1671,2996,1960,16,747,,Active,,,http://www.redfin.com/CA/San-Francisco/300-Baltimore-Way-94112/home/799615,San Francisco MLS,421580810,N,Y,37.7086549,-122.4371029
MLS Listing,,Condo/Co-op,301 Mission St Ph 1,San Francisco,CA,94105,1899000,2,2.0,San Francisco,1728,50667,2009,16,1099,2888,Active,,,http://www.redfin.com/CA/San-Francisco/301-Mission-St-94105/unit-1/home/40142651,San Francisco MLS,421578272,N,Y,37.7903824,-122.3961531
MLS Listing,,Single Family Residential,3634 Quintara St,San Francisco,CA,94116,1190000,2,2.0,San Francisco,1187,2495,1942,16,1003,,Active,,,http://www.redfin.com/CA/San-Francisco/3634-Quintara-St-94116/home/2033891,BAREIS,421581721,N,Y,37.7475657,-122.5045869
MLS Listing,,Condo/Co-op,778 2nd Ave,San Francisco,CA,94118,1495000,2,1.5,San Francisco,1271,2250,1910,16,1176,275,Active,,,http://www.redfin.com/CA/San-Francisco/778-2nd-Ave-94118/home/857900,San Francisco MLS,421582773,N,Y,37.77453,-122.459235
MLS Listing,,Multi-Family (2-4 Unit),649 - 651 Francisco St,San Francisco,CA,94133,4800000,5,4.0,San Francisco,4110,1023,1932,17,1168,,Active,,,http://www.redfin.com/CA/San-Francisco/649-Francisco-St-94133/home/171837326,San Francisco MLS,421582853,N,Y,37.8043641,-122.4161452
MLS Listing,,Single Family Residential,220 Hermann St,San Francisco,CA,94117,1750000,3,2.0,San Francisco,1874,1392,1900,17,934,,Active,,,http://www.redfin.com/CA/San-Francisco/220-Hermann-St-94117/home/2030647,San Francisco MLS,421582854,N,Y,37.7705731,-122.4288995
MLS Listing,,Condo/Co-op,274 Page St,San Francisco,CA,94102,1498000,2,2.0,San Francisco,,3300,1884,17,,314,Active,,,http://www.redfin.com/CA/San-Francisco/274-Page-St-94102/home/1804372,San Francisco MLS,421582814,N,Y,37.773916,-122.425319
MLS Listing,,Condo/Co-op,442 23rd Ave #4,San Francisco,CA,94121,749000,2,1.5,San Francisco,839,3000,1971,17,893,200,Active,,,http://www.redfin.com/CA/San-Francisco/442-23rd-Ave-94121/unit-4/home/170557644,San Francisco MLS,421582822,N,Y,37.779314,-122.482197
MLS Listing,,Multi-Family (2-4 Unit),517 - 519 Lyon St,San Francisco,CA,94117,2660000,5,3.0,San Francisco,2720,2652,1900,17,978,,Active,,,http://www.redfin.com/CA/San-Francisco/517-Lyon-St-94117/home/1756277,San Francisco MLS,421582793,N,Y,37.7757996,-122.4433528
MLS Listing,,Condo/Co-op,325 Berry St #109,San Francisco,CA,94158,1419000,2,2.5,San Francisco,1280,,2007,17,1109,755,Active,August-28-2021 02:00 PM,August-28-2021 04:00 PM,http://www.redfin.com/CA/San-Francisco/325-Berry-St-94158/unit-109/home/17305301,San Francisco MLS,421568789,N,Y,37.773394,-122.3957106
MLS Listing,,Condo/Co-op,489A 30th St Uppr Unit,SAN FRANCISCO,CA,94131,2499888,3,3.0,SAN FRANCISCO,2060,2474,2021,17,1214,,Active,,,http://www.redfin.com/CA/San-Francisco/489-30th-St-94131/unit-Unit/home/176021643,MLSListings,ML81857264,N,Y,37.741698,-122.4306881
MLS Listing,,Single Family Residential,489 30th St,SAN FRANCISCO,CA,94131,4699888,6,5.0,SAN FRANCISCO,4130,2474,2021,17,1138,,Active,,,http://www.redfin.com/CA/San-Francisco/489-30th-St-94131/home/1415303,MLSListings,ML81857256,N,Y,37.741698,-122.4306881
MLS Listing,,Multi-Family (2-4 Unit),391 - 393 Crestmont Dr,San Francisco,CA,94131,2195000,5,4.5,San Francisco,3412,5589,1978,17,643,,Active,,,http://www.redfin.com/CA/San-Francisco/391-Crestmont-Dr-94131/home/671495,San Francisco MLS,421582656,N,Y,37.7584524,-122.4610401
MLS Listing,,Condo/Co-op,2878 Sacramento St #6,San Francisco,CA,94115,950000,1,1.0,San Francisco,,,,17,,397,Active,,,http://www.redfin.com/CA/San-Francisco/2878-Sacramento-St-94115/unit-6/home/1963879,San Francisco MLS,421574446,N,Y,37.7892369,-122.4402289
MLS Listing,,Single Family Residential,599 24th Ave,San Francisco,CA,94121,1850000,3,2.0,San Francisco,2120,2060,1914,17,873,,Active,,,http://www.redfin.com/CA/San-Francisco/599-24th-Ave-94121/home/1888738,San Francisco MLS,421580131,N,Y,37.7783469,-122.483799
MLS Listing,,Condo/Co-op,3943 26th St,SAN FRANCISCO,CA,94131,1198000,2,1.0,SAN FRANCISCO,881,,1900,17,1360,271,Active,,,http://www.redfin.com/CA/San-Francisco/3943-26th-St-94131/home/21966292,MLSListings,ML81857180,N,Y,37.748194,-122.428116
MLS Listing,,Condo/Co-op,2160 Hayes St #3,San Francisco,CA,94117,2495000,3,3.0,San Francisco,1701,3725,2021,17,1467,565,Active,,,http://www.redfin.com/CA/San-Francisco/2160-Hayes-St-94117/unit-3/home/176017312,San Francisco MLS,421582356,N,Y,37.7733835,-122.4519189
MLS Listing,,Condo/Co-op,2160 Hayes St #2,San Francisco,CA,94117,2025000,3,3.0,San Francisco,1623,3725,2021,17,1248,565,Active,,,http://www.redfin.com/CA/San-Francisco/2160-Hayes-St-94117/unit-2/home/176016945,San Francisco MLS,421582358,N,Y,37.7733835,-122.4519189
MLS Listing,,Condo/Co-op,4617 California St,SAN FRANCISCO,CA,94118,999000,2,1.0,SAN FRANCISCO,1313,,1910,17,761,332,Active,,,http://www.redfin.com/CA/San-Francisco/4617-California-St-94118/home/932210,MLSListings,ML81857166,N,Y,37.784519,-122.4670545
MLS Listing,,Multi-Family (2-4 Unit),648 - 652 South Van Ness Ave,San Francisco,CA,94110,2095000,6,1.0,San Francisco,4275,3062,1911,17,490,,Active,,,http://www.redfin.com/CA/San-Francisco/648-S-Van-Ness-Ave-94110/home/709279,San Francisco MLS,421582355,N,Y,37.762706,-122.4176053
MLS Listing,,Single Family Residential,208 Fair Oaks St,San Francisco,CA,94110,4600000,8,,San Francisco,4463,3643,1900,17,1031,,Active,,,http://www.redfin.com/CA/San-Francisco/208-Fair-Oaks-St-94110/home/1292427,San Francisco MLS,421582500,N,Y,37.7531053,-122.4244043
MLS Listing,,Condo/Co-op,2779 Folsom St #5,San Francisco,CA,94110,2495000,3,3.5,San Francisco,2292,8260,,17,1089,708,Active,August-24-2021 02:30 PM,August-24-2021 04:00 PM,http://www.redfin.com/CA/San-Francisco/2779-Folsom-St-94110/unit-5/home/176015649,San Francisco MLS,421582494,N,Y,37.752965,-122.413713
MLS Listing,,Condo/Co-op,1974 Bush St,San Francisco,CA,94115,2495000,3,2.5,San Francisco,2231,4125,1900,17,1118,,Active,,,http://www.redfin.com/CA/San-Francisco/1974-Bush-St-94115/home/12395537,San Francisco MLS,421577927,N,Y,37.787777,-122.429784
MLS Listing,,Condo/Co-op,8 Buchanan St #209,San Francisco,CA,94102,849000,1,1.0,San Francisco,721,,2014,17,1178,524,Active,,,http://www.redfin.com/CA/San-Francisco/8-Buchanan-St-94102/unit-209/home/110051636,"bridgeMLS, Bay East AOR, or Contra Costa AOR",40962097,N,Y,37.7699896,-122.426517
MLS Listing,,Condo/Co-op,360 10th St #2,San Francisco,CA,94103,1095000,1,2.0,San Francisco,1324,2724,2001,17,827,757,Active,,,http://www.redfin.com/CA/San-Francisco/360-10th-St-94103/unit-2/home/856912,San Francisco MLS,421580128,N,Y,37.7718639,-122.4121366
MLS Listing,,Condo/Co-op,425 1st St #1505,San Francisco,CA,94105,839000,1,1.0,San Francisco,710,56024,2008,17,1182,1066,Active,,,http://www.redfin.com/CA/San-Francisco/425-1st-St-94105/unit-1505/home/17304946,San Francisco MLS,421582258,N,Y,37.785708,-122.392204
MLS Listing,,Condo/Co-op,45 Fountain St,San Francisco,CA,94114,999000,2,1.0,San Francisco,,3125,1961,17,,,Active,,,http://www.redfin.com/CA/San-Francisco/45-Fountain-St-94114/home/28938889,San Francisco MLS,421582415,N,Y,37.7501548,-122.4413055
MLS Listing,,Condo/Co-op,280 Spear St Unit 18D,San Francisco,CA,94105,1720000,2,2.0,San Francisco,1072,47916,,17,1604,1181,Active,,,http://www.redfin.com/CA/San-Francisco/280-Spear-St-94105/unit-18D/home/176013633,San Francisco MLS,421582467,N,Y,37.7904356,-122.3918209
MLS Listing,,Condo/Co-op,260 King St #703,San Francisco,CA,94107,1295000,2,2.0,San Francisco,1286,213232,2004,17,1007,944,Active,,,http://www.redfin.com/CA/San-Francisco/260-King-St-94107/unit-703/home/22889383,San Francisco MLS,421566500,N,Y,37.7776624,-122.3938672
MLS Listing,,Single Family Residential,110 Castenada Ave,SAN FRANCISCO,CA,94116,2350000,4,3.0,SAN FRANCISCO,2354,3724,1961,17,998,57,Active,,,http://www.redfin.com/CA/San-Francisco/110-Castenada-Ave-94116/home/680724,MLSListings,ML81857096,N,Y,37.7494035,-122.4622706
MLS Listing,,Multi-Family (5+ Unit),620 Eddy St,San Francisco,CA,94109,6959000,2,,San Francisco,17546,6300,1910,17,397,,Active,,,http://www.redfin.com/CA/San-Francisco/620-Eddy-St-94109/home/577126,San Francisco MLS,421580413,N,Y,37.7834871,-122.4180833
MLS Listing,,Multi-Family (5+ Unit),237 Leavenworth St,San Francisco,CA,94102,5200000,0,,San Francisco,11960,3781,1922,17,435,,Active,,,http://www.redfin.com/CA/San-Francisco/237-Leavenworth-St-94102/home/555000,San Francisco MLS,421580404,N,Y,37.7832608,-122.4145392
MLS Listing,,Condo/Co-op,38 Bryant St #905,San Francisco,CA,94105,875000,1,1.0,San Francisco,722,32017,1994,18,1212,636,Active,,,http://www.redfin.com/CA/San-Francisco/38-Bryant-St-94105/unit-905/home/2019404,San Francisco MLS,421582320,N,Y,37.7873536,-122.3888066
MLS Listing,,Single Family Residential,79 Karen Ct,San Francisco,CA,94134,1250000,4,3.0,San Francisco,1850,1560,2002,18,,,Active,,,http://www.redfin.com/CA/San-Francisco/79-Karen-Ct-94134/home/1689831,MetroList,421581556,N,Y,37.7232853,-122.406829
